с0_id,с10_date,с1_region,с2_city,с3_category,с4_subcategory,с5_tags,с6_name,с7_adress,с8_latitude,с9_longitude
10004865,2020-12-15,Калининградская область,Балтийск,Достопримечательности,Достопримечательности и культурные объекты,"Города-призраки, ,Исторические достопримечательности,Загадочные места,Больше,Исторические места для прогулок,Военные базы и объекты",Заброшенный военный аэродром Нойтиф,"Балтийская коса, Балтийск Россия",54.62629,19.884733
1566920,2020-12-15,Калининградская область,Калининград,Достопримечательности,Достопримечательности и культурные объекты,Культурные объекты и достопримечательности,Куршская коса,"98-километровый полуостровной национальный парк Куршская коса Клайпеда - Лесное, Калининград 238535 Россия",55.222794,20.888557
4891465,2020-12-15,Калининградская область,Калининградская область,Достопримечательности,Достопримечательности и культурные объекты,"Специализированные музеи,Культурные объекты и достопримечательности",Мурариум арт-коллекция кошек,"ул. Саратовская, 2A, Зеленоградск 238326 Россия",54.95981,20.482439
8445112,2020-12-15,Калининградская область,Калининград,Достопримечательности,Достопримечательности и культурные объекты,"Военные базы и объекты,Исторические достопримечательности,Культурные объекты и достопримечательности",Форт № 11 Денхофф,"ул. Энергетиков, Калининград Россия",54.65698,20.567411
10712660,2020-12-15,Калининградская область,Калининградская область,Достопримечательности,Достопримечательности и культурные объекты,"Памятники и статуи,Культурные объекты и достопримечательности",Макет средневекового Кёнигсберга,"пер. Гофмана, Светлогорск Россия",54.9406,20.14558
7788074,2020-12-15,Калининградская область,Янтарный,Достопримечательности,Достопримечательности и культурные объекты,"Пляжи,Культурные объекты и достопримечательности",Пляжный променад,"Парк им. Беккера, Янтарный Россия",54.86709,19.933529
544631,2020-12-15,Калининградская область,Калининград,Достопримечательности,Музеи,Специализированные музеи,Подводная лодка-музей Б-413,"наб. Петра Великого, 1, Калининград 236006 Россия",54.706543,20.493921
7113646,2020-12-15,Калининградская область,Калининградская область,Достопримечательности,Достопримечательности и культурные объекты,Культурные объекты и достопримечательности,Набережная Светлогорска,Светлогорск Россия,54.946114,20.150866
7790798,2020-12-15,Калининградская область,Балтийск,Достопримечательности,Достопримечательности и культурные объекты,"Прогулки по живописной местности,Культурные объекты и достопримечательности",Набережная Балтийска,Балтийск Россия,54.645172,19.878536
544640,2020-12-15,Калининградская область,Калининград,Достопримечательности,Достопримечательности и культурные объекты,Церкви и соборы,Кафедральный Собор,"ул. Канта, 1, Калининград 236006 Россия",54.70638,20.51218
8365225,2020-12-15,Калининградская область,Калининградская область,Достопримечательности,Природа и парки,"Водоемы,Парки",Озеро Тихое,"Калининградский пр., Светлогорск Россия",54.94058,20.14232
7790910,2020-12-15,Калининградская область,Балтийск,Достопримечательности,Достопримечательности и культурные объекты,Памятники и статуи,Памятник императрице Елизавете Петровне,"На северной части Балтийской косы, Балтийск Россия",54.64656,19.876127
544635,2020-12-15,Калининградская область,Калининград,Достопримечательности,Музеи,"Специализированные музеи,Научные музеи",Музей Мирового океана,"Набережная Петра Великого, д. 1, Калининград 236006 Россия",54.706516,20.499763
3759446,2020-12-15,Калининградская область,Орловка,Рестораны,,Бар,Нессельбек,"ул. Центральная, д. 7, Орловка 238324 Россия",54.793095,20.533636
7202794,2020-12-15,Калининградская область,Калининградская область,Достопримечательности,Достопримечательности и культурные объекты,Культурные объекты и достопримечательности,Зеленоградский променад,Зеленоградск Россия,54.961884,20.475197
14407101,2020-12-15,Калининградская область,Калининград,Отели,,,Константа,"ул. Северная,12 Ленинградский р-н, Калининград 236029 Россия",54.75262,20.49961
12715269,2020-12-15,Калининградская область,Калининград,Отели,,,Апартаменты на Арсенальной,"ул. Арсенальная, 3, Калининград 236029 Россия",54.745117,20.545086
6959076,2020-12-15,Калининградская область,Калининград,Отели,,,Отель RiverSide,"ул. Ялтинская, 20А, Калининград Россия",54.705914,20.543066
2696561,2020-12-15,Калининградская область,Калининград,Отели,,,Гостиница Обертайх Люкс,"ул. Гоголя, д. 17, Калининград 236008 Россия",54.732037,20.522657
6855298,2020-12-15,Калининградская область,Зеленоградский район,Отели,,,Зеленоградск Спа отель,"Ул. Юрия Гагарина, 41В, Зеленоградск 238530 Россия",54.954777,20.456139
300437,2020-12-15,Калининградская область,Калининград,Отели,,,Гостиница Калининград,"Ленинский проспект, 81, Калининград 236006 Россия",54.711956,20.509604
2342808,2020-12-15,Калининградская область,Зеленоградский район,Отели,,,Отель Априори,"ул. Гагарина, 24A, Зеленоградск 238530 Россия",54.95641,20.458958
3405813,2020-12-15,Калининградская область,Янтарный,Отели,,,Шлосс Отель,"ул. Советская, д. 68, Янтарный 238580 Россия",54.866764,19.93779
14969714,2020-12-15,Калининградская область,Советск,Отели,,,Hercules,"Ulitsa Pushkina 3A, Советск 238750 Россия",55.08044,21.89849
13003018,2020-12-15,Калининградская область,Зеленоградский район,Отели,,,Apartments Exclusive,"Володарского 28, Зеленоградск 238530 Россия",54.964577,20.485401
8556923,2020-12-15,Калининградская область,Зеленоградский район,Отели,,,Бутик-отель ГРЦ ПАРАDOX,"ул. Саратовская, 2А, Зеленоградск 238326 Россия",54.959934,20.48271
2492026,2020-12-15,Калининградская область,Светлогорский район,Отели,,,Санаторий Янтарь,"ул. Ленина, д. 50, Светлогорск 238560 Россия",54.941902,20.138897
2705029,2020-12-15,Калининградская область,Янтарный,Отели,,,Отель Акватория,"Советская улица, д. 1А, Янтарный 238580 Россия",54.88326,19.936144
14203915,2020-12-15,Калининградская область,Калининград,Отели,,,Вилла Тоскана,"Пушкина,  15, Калининград 236010 Россия",54.71689,20.473652
8299426,2020-12-15,Калининградская область,Зеленоградский район,Рестораны,,Кафе,Уксус,"ул. Саратовская, 2А, Зеленоградск 238530 Россия",54.95982,20.48264
2696265,2020-12-15,Калининградская область,Калининград,Отели,,,Робинзон Гостевой дом,"Достоевского улица, д. 22А, Калининград 236008 Россия",54.73578,20.53207
1106526,2020-12-15,Калининградская область,Калининград,Рестораны,,Бар,Планета,"ул. Черняховского, 26, Калининград 236000 Россия",54.71965,20.507307
7940657,2020-12-15,Калининградская область,Калининград,Рестораны,,Бар,Чешский трактир У Гашека,"Ленинский пр., 1, Калининград 236004 Россия",54.718376,20.501839
2696534,2020-12-15,Калининградская область,Калининград,Отели,,,Отель Пруссия,"ул. Коммунистическая, 4А, Калининград 236005 Россия",54.680046,20.482868
2710689,2020-12-15,Калининградская область,Калининград,Отели,,,Вилла Татьяна,"ул. Верхнеозёрная, д. 16а, Калининград 236008 Россия",54.730007,20.522549
300432,2020-12-15,Калининградская область,Калининград,Отели,,,Гостиница Балтика,"Московский проспект, д. 375, Калининград 236006 Россия",54.70748,20.616875
12477043,2020-12-15,Калининградская область,Зеленоградский район,Отели,,,Butik Hotel 12,"Lenina 32 А, Зеленоградск 238530 Россия",54.956875,20.463572
1900188,2020-12-15,Калининградская область,Калининград,Отели,,,Отель Черепаха,"ул. Зоологический тупик, 10, Калининград 236000 Россия",54.723785,20.490055
1462734,2020-12-15,Калининградская область,Калининград,Отели,,,Вилла Северин,"ул. Ленинградская, д. 9а, Калининград 236008 Россия",54.731884,20.521261
14076720,2020-12-15,Калининградская область,Калининград,Отели,,, Holiday Inn  Калининград,"ул. Гюго,  1, Калининград 236006 Россия",54.70807,20.505474
1838688,2020-12-15,Калининградская область,Орловка,Отели,,,"Гостиница ""Усадьба""","Заречная ул., 8, Орловка 238300 Россия",54.79227,20.528728
2550780,2020-12-15,Калининградская область,Зеленоградский район,Отели,,,Отель Кристалл,"ул. Гагарина, д. 19а, Зеленоградск 238530 Россия",54.957718,20.464722
585020,2020-12-15,Калининградская область,Светлогорский район,Отели,,,Гранд Палас Отель,"Береговой переулок, д. 2, Светлогорск 238560 Россия",54.945847,20.148613
14216056,2020-12-15,Калининградская область,Калининград,Рестораны,,,Другое Место,"ул.Пролетарская 82-84, Калининград 236029 Россия",54.71959,20.51374
14916563,2020-12-15,Калининградская область,Зеленоградский район,Отели,,,Exclusive Wild,"Володарского 28/6, Зеленоградск 238326 Россия",54.96329,20.48354
11999711,2020-12-15,Калининградская область,Бережковское,Отели,,,"Гостевой дом ""Вальдхаузен""","Луговая,  д.1, Бережковское 238178 Россия",54.634876,21.661062
10051128,2020-12-15,Калининградская область,Зеленоградский район,Отели,,,Apart-Hotel na Volodarskogo,"Ulitsa Volodarskogo 28А, Зеленоградск 238530 Россия",54.9642,20.48464
15010400,2020-12-15,Калининградская область,Калининград,Рестораны,,,RIOJA Restaurant & Tapas Bar,"Проспект Мира,  43, Калининград 236022 Россия",54.72077,20.482815
12535245,2020-12-15,Калининградская область,Светлогорский район,Отели,,,Apartments Planeta Yantarya,"Ulitsa Gagarina 11a, Светлогорск 238560 Россия",54.94096,20.15787
14193897,2020-12-15,Калининградская область,Калининград,Рестораны,,,Вилла Тоскана Ресторан,"ул.Пушкина 15, Калининград 236010 Россия",54.716885,20.473639
15215953,2020-12-15,Калининградская область,Калининград,Отели,,,Guest House Maxim's,"ulitsa Serzhanta Mishina 56 B, Калининград 236010 Россия",54.72183,20.4334
17723393,2020-12-15,Калининградская область,Калининград,Отели,,,l Feniks,"Ulitsa General-Fel'dmarshala Rumyantseva 3, Калининград 236006 Россия",54.71284,20.4877
300420,2020-12-15,Калининградская область,Калининград,Отели,,,Гостиница Чайка,"ул. Пугачева, 13, Калининград 236000 Россия",54.723312,20.472618
15739118,2020-12-15,Калининградская область,Калининград,Отели,,,Apartments Elite Home,"Naberezhnaya Bagramyana, 14, Калининград 236006 Россия",54.70745,20.50409
17703380,2020-12-15,Калининградская область,Калининград,Отели,,,Azimut Inn,"S. Tyulenina Str 8, Калининград 236006 Россия",54.71031,20.52057
10817505,2020-12-15,Калининградская область,Зеленоградский район,Отели,,,Zamok,"железнодорожная 7а кв 1, Зеленоградск 238530 Россия",54.78924,20.32365
12395106,2020-12-15,Калининградская область,Балтийск,Отели,,,Apart Hotel Rybnaya Derevnya,"Goncharova 7, Балтийск 238520 Россия",54.63619,19.88002
8336501,2020-12-15,Калининградская область,Калининград,Отели,,,Guest House Nika,"st Telmana 14 B, Калининград 236008 Россия",54.73212,20.52044
2284925,2020-12-15,Калининградская область,Калининград,Отели,,,Навигатор,"Советский проспект, 285, Калининград 236023 Россия",54.760834,20.440777
12996754,2020-12-15,Калининградская область,Багратионовск,Отели,,,Mini-hotel Sery Gus,"Krasnoarmeiskaia Street dom 27, Багратионовск 238420 Россия",54.3866,20.63681
300506,2020-12-15,Калининградская область,Калининград,Отели,,,Гостиница Патриот,"ул. Озерная, д. 25а, Калининград 236029 Россия",54.73546,20.51032
11045675,2020-12-15,Калининградская область,Янтарный,Рестораны,,Кафе,Базилик,"ул. Советская, 110в, Янтарный 238580 Россия",54.856426,19.945839
11797772,2020-12-15,Калининградская область,Калининград,Рестораны,,,Бургербар,"пл. Победы, 10, Калининград 236040 Россия",54.719345,20.50389
12908094,2020-12-15,Калининградская область,Калининград,Рестораны,,"Кафе,Паб",Краны и Стаканы,"ул. Брамса, 40, Калининград 236022 Россия",54.726246,20.494265
19370663,2020-12-15,Калининградская область,Калининград,Рестораны,,,Феттучини,"Баранова, 40 ТРЦ ""Европа"", 3 этаж, Калининград 236029 Россия",54.7221,20.51345
2708827,2020-12-15,Калининградская область,Клинцовка,Отели,,,Куршская Коса,"ул. Центральная, д. 17, Клинцовка 238530 Россия",54.79808,20.31371
3767930,2020-12-15,Калининградская область,Светлогорский район,Рестораны,,Кафе,Маленькая Венеция,"Октябрьская ул., 17, Светлогорск Россия",54.944443,20.152748
5499115,2020-12-15,Калининградская область,Светлогорский район,Отели,,,Гостевой дом Елена,"ул. Московская, 1, Светлогорск 238560 Россия",54.94477,20.145842
6467644,2020-12-15,Калининградская область,Лесное,Отели,,,Дом рыболова,"Куршская коса, Лесное Россия",55.00605,20.611135
6516639,2020-12-15,Калининградская область,Светлогорский район,Отели,,,Янтарный Берег,"Калининградский проспект, 79а перекресток ул.Ленина и Калининградского пр., Светлогорск 238560 Россия",54.92679,20.17269
2696423,2020-12-15,Калининградская область,Светлогорский район,Отели,,,Фламинго,"ул. Горького, д. 12, Светлогорск 238560 Россия",54.94063,20.1487
7377445,2020-12-15,Калининградская область,Зеленоградский район,Отели,,,Гостиница Геркулес,"ул. Пограничная, 14A, Зеленоградск 238530 Россия",54.96009,20.4841
1461306,2020-12-15,Калининградская область,Калининград,Отели,,,Клавдия,"ул. Павлова, д. 21, Калининград 236009 Россия",54.750484,20.533527
6740536,2020-12-15,Калининградская область,Зеленоградский район,Отели,,,Гостиница Маякоvский,"Куршская коса, ориентир Маяк, Лесной 238534 Россия",55.015263,20.610538
2706584,2020-12-15,Калининградская область,Зеленоградский район,Отели,,,Отель Альтримо,"Пограничная улица, д. 11, Рыбачий 238583 Россия",55.15872,20.849693
4301397,2020-12-15,Калининградская область,Новоселово,Отели,,,"Парк-Отель ""Филипп""","Берлинское шоссе, 11к, Новоселово 238443 Россия",54.458168,20.143179
2482770,2020-12-15,Калининградская область,Балтийск,Отели,,,Золотой якорь,"Морской бульвар, д. 6, Балтийск 238520 Россия",54.638786,19.894602
1106521,2020-12-15,Калининградская область,Калининград,Рестораны,,,Арт Клуб 12 Стульев,"пр. Мира, 67, Калининград Россия",54.71971,20.48652
1106533,2020-12-15,Калининградская область,Калининград,Рестораны,,,Таверна Дикий Дюк,"ул. Черняховского, д. 26, Калининград 236016 Россия",54.719807,20.507826
12621852,2020-12-15,Калининградская область,Балтийск,Рестораны,,,Gusto Fresco,"пер. Водолазный 4, Балтийск Россия",54.644848,19.895063
18922110,2020-12-15,Калининградская область,Янтарный,Рестораны,,,Вкус-Ням-Ба,"Советская, д.33, Янтарный 238580 Россия",54.874542,19.9376
8658662,2020-12-15,Калининградская область,Малое Исаково,Отели,,,Солнечный,"переулок Грибоедова, 2А, Малое Исаково 238310 Россия",54.738476,20.57715
11797286,2020-12-15,Калининградская область,Калининград,Рестораны,,,Пармезан,"ул. Гостиная, 3, Калининград 236022 Россия",54.71923,20.488182
2629604,2020-12-15,Калининградская область,Светлогорский район,Отели,,,"Гостевой комплекс ""Сосны""","ул. Аптечная, 4, Светлогорск 238560 Россия",54.94276,20.15356
14912977,2020-12-15,Калининградская область,Калининград,Отели,,,Гагарин Hostel,"Гагарина 2А/1 2 этаж, Калининград 236038 Россия",54.713932,20.537804
2706145,2020-12-15,Калининградская область,Отрадное,Отели,,,"Гостиница ""Георгенсвальде""","ул. Токарева, 6, Отрадное 238590 Россия",54.941128,20.115881
2435857,2020-12-15,Калининградская область,Калининград,Отели,,,"Гостиница ""Котбус""","ул. Колхозная, 6, Калининград 236029 Россия",54.74363,20.52846
4259494,2020-12-15,Калининградская область,Светлогорский район,Отели,,,Villa Gretta,"ул. Динамо, 10А, Светлогорск 238560 Россия",54.945763,20.157759
12790474,2020-12-15,Калининградская область,Калининград,Отели,,,Skvorechnik,"Ulitsa Elblongskaya 18, Калининград 236039 Россия",54.70083,20.49774
14136040,2020-12-15,Калининградская область,Янтарный,Отели,,,Friday,"ул. Озерная, д.17, Янтарный 238580 Россия",54.88203,19.939672
6835230,2020-12-15,Калининградская область,Калининград,Отели,,,Тихая Гавань,"ул. Малоярославская, д. 18, Калининград 236038 Россия",54.720222,20.549063
643370,2020-12-15,Калининградская область,Калининград,Отели,,,Гостиница Россия (Кронус),"ул. Луначарского, д. 2, Калининград 238750 Россия",55.0804,21.88833
3756848,2020-12-15,Калининградская область,Светлогорский район,Рестораны,,Кафе,У Лукоморья,"Октябрьская ул., 22, Светлогорск Россия",54.943333,20.153944
6681072,2020-12-15,Калининградская область,Калининград,Рестораны,,Бар,Ресторан-пивоварня Пивовар,"Маршала Борзова ул., 93а, Калининград 236023 Россия",54.73592,20.46272
3769437,2020-12-15,Калининградская область,Калининград,Рестораны,,Кафе,Мама Мия,"ул. А. Невского, д. 34 б, Калининград 236006 Россия",54.75157,20.5419
13171391,2020-12-15,Калининградская область,Гурьевск,Рестораны,,Фастфуд,Old Mill Bruxelles,"Аэропорт Храброво Аэропорт Храброво, Гурьевск 238315 Россия",54.882423,20.585613
13150546,2020-12-15,Калининградская область,Калининград,Рестораны,,Бар,Место Cилы,"ул. Галицкого, 18, Калининград 236006 Россия",54.7143,20.49699
8871040,2020-12-15,Калининградская область,Калининград,Отели,,,Гостиница РАНХиГС,"ул. Артиллерийская, 62, Калининград 236016 Россия",54.73271,20.53293
15516768,2020-12-15,Калининградская область,Светлогорский район,Отели,,,Seestern Hotel,"Beregovoy Pereulok 8, Светлогорск 238560 Россия",54.94575,20.1492
6215879,2020-12-15,Калининградская область,Пионерский,Отели,,,Отель Круиз,"Рабочая ул., 6, Пионерский 238590 Россия",54.95174,20.20913
5035115,2020-12-15,Калининградская область,Лесное,Отели,,,Гостевой дом Понарт,"ул. Лесная, 3, Лесное 238563 Россия",55.010307,20.61312
17521237,2020-12-15,Калининградская область,Калининград,Отели,,,Quokka Mini-Hotel,"Ulitsa Gendelya 8-16, Калининград 236022 Россия",54.72203,20.49662
2268336,2020-12-15,Калининградская область,Светлогорский район,Отели,,,Бриз Балтики гостевой дом,"Нахимова улица, д. 2, Светлогорск 238590 Россия",54.71811,20.464722
1180987,2020-12-15,Калининградская область,Светлогорский район,Отели,,,Пансионат Балтика,"ул. Верещагина, д. 8, Светлогорск 238563 Россия",54.944,20.16512
13564299,2020-12-15,Калининградская область,Янтарный,Отели,,,Aquamarine,"Beregovaya 3, Янтарный 238580 Россия",54.87751,19.93474
12383217,2020-12-15,Калининградская область,Пионерский,Отели,,,Florange Mini Hotel,"Sovetskaya 1, Пионерский 238590 Россия",54.95145,20.22821
8872138,2020-12-15,Калининградская область,Талпаки,Рестораны,,,Чебуречная Талпаки,"Автомобильная дорога А-229, Талпаки 238214 Россия",54.650417,21.340973
8385088,2020-12-15,Калининградская область,Калининград,Рестораны,,,Вилла Ченто,"ул. 9 Апреля, 9, Калининград 236006 Россия",54.71592,20.5223
21250938,2020-12-15,Калининградская область,Калининград,Рестораны,,,"Ресторан ""Шкипер""","Южное полукольцо, 4 п. Прибрежное, Калининград 238312 Россия",54.694496,20.599974
3768005,2020-12-15,Калининградская область,Калининград,Рестораны,,,Навигатор,"Советский пр-кт, 285, Калининград 236019 Россия",54.7214,20.49999
6129845,2020-12-15,Калининградская область,Калининград,Рестораны,,,Три ступени,"Еловая Аллея, 63A, Калининград 236038 Россия",54.728477,20.542557
6932276,2020-12-15,Калининградская область,Калининград,Рестораны,,,Таверна Берлога,"Ул. Дзержинского, 17а, Калининград 236004 Россия",54.69337,20.52531
7218585,2020-12-15,Калининградская область,Моховое,Отели,,,Гостевой дом Кёнигсхоф,"ул. Дорожная, 1 А, Моховое 238530 Россия",54.92791,20.477297
300501,2020-12-15,Калининградская область,Калининград,Отели,,,Гостиница Адеми,"наб. Петра Великого, д. 1, Калининград 236000 Россия",54.70657,20.50056
8864572,2020-12-15,Калининградская область,Зеленоградский район,Отели,,,Baza Otdyha Rai.com,"Parkovaya ulitsa 16, Лесной 238534 Россия",55.014473,20.609049
3487707,2020-12-15,Калининградская область,Калининград,Отели,,,У Озера,"ул. Чапаева, 33, Калининград 236010 Россия",54.7215,20.46939
6277619,2020-12-15,Калининградская область,Калининград,Отели,,,"Отель ""Лайт""","ул. Демьяна Бедного, 5Б, Калининград 236000 Россия",54.74365,20.51238
5414995,2020-12-15,Калининградская область,Зеленоградский район,Отели,,,"Гостевой дом ""Терраса""","ул. Невского, 23, Лесной 238534 Россия",55.015583,20.614784
8708517,2020-12-15,Калининградская область,Калининград,Отели,,,Hostel Akteon Lindros,"ul. Svobodnaya 23, Apt. 22, Калининград 236022 Россия",54.71786,20.48689
3774914,2020-12-15,Калининградская область,Зеленоградский район,Рестораны,,Кафе,Ренессанс,"ул. Гагарина, д. 17в, Зеленоградск 238530 Россия",54.95809,20.46608
6129925,2020-12-15,Калининградская область,Зеленоградский район,Рестораны,,,Встреча,"Курортный проспект, 17, Зеленоградск 238530 Россия",54.96065,20.477978
8350755,2020-12-15,Калининградская область,Калининград,Рестораны,,,Три Холма,"Мамоновское шоссе, 16, Калининград 236020 Россия",54.65,20.366667
8445551,2020-12-15,Калининградская область,Зеленоградский район,Рестораны,,,Чебуречная на 20км,"20км,5, Переславское 238542 Россия",54.81766,20.281042
15265770,2020-12-15,Калининградская область,Балтийск,Рестораны,,,Додо Пицца,"Ленина, 22, Балтийск 238520 Россия",54.64817,19.90226
15202343,2020-12-15,Калининградская область,Зеленоградский район,Рестораны,,Кафе,Папаша Беппе,"Володарского, 16Б, Зеленоградск 238326 Россия",54.963238,20.481928
3770992,2020-12-15,Калининградская область,Калининград,Рестораны,,,Sushi & More,"Ленинский проспект, 81 гост. Калининград, Калининград 236006 Россия",54.711872,20.509497
12863995,2020-12-15,Калининградская область,Зеленоградский район,Рестораны,,,"Ресторан ""Зеленоградск""","ул. Гагарина, 41В, Зеленоградск 238530 Россия",54.954967,20.456528
14171579,2020-12-15,Калининградская область,Зеленоградский район,Рестораны,,,Ресторан Априори,"ул. Гагарина,  24А Гостиница Априори, Зеленоградск 238530 Россия",54.956467,20.458158
6743140,2020-12-15,Калининградская область,Калининград,Рестораны,,,Цитрус Бар,"Ленинский проспект, 30, Калининград 236006 Россия",54.71599,20.5025
6129651,2020-12-15,Калининградская область,Калининград,Рестораны,,,Анна Францевна,"Мира проспект, 102, Калининград 236022 Россия",54.72178,20.469381
3777215,2020-12-15,Калининградская область,Калининград,Рестораны,,,Таймс,"Тихорецкая ул., 4а, Калининград 236005 Россия",54.68423,20.49065
8344271,2020-12-15,Калининградская область,Янтарный,Рестораны,,,Алатырь,"Балебина, 1/2, Янтарный 238580 Россия",54.87562,19.939058
1106525,2020-12-15,Калининградская область,Калининград,Рестораны,,,Кафетерий Калининградского Технического Университета,"пр. Советский, 1, Калининград 236022 Россия",54.720768,20.49847
6516633,2020-12-15,Калининградская область,Светлогорский район,Отели,,,Отрадное,"Калининградский проспект, 99а, Светлогорск 238560 Россия",54.938774,20.10646
6129709,2020-12-15,Калининградская область,Калининград,Рестораны,,,Изабелла,"Александра Невского, 72-74а, Калининград 236008 Россия",54.72435,20.52537
12171857,2020-12-15,Калининградская область,Калининград,Рестораны,,,Абажур,"ул. Фрунзе, 35, Калининград 236016 Россия",54.71286,20.523909
3771427,2020-12-15,Калининградская область,Калининград,Рестораны,,"Бар,Кафе",Грильяж,"Московский пр-кт, д. 121а, Калининград 236006 Россия",54.70983,20.52814
3769901,2020-12-15,Калининградская область,Калининград,Рестораны,,Кафе,Винтаж,"Ленинский пр-кт, д. 30, Калининград 236006 Россия",54.71121,20.50823
10533130,2020-12-15,Калининградская область,Калининград,Рестораны,,,ДАМАСК,"Проспект Мира 56 А НАПРОТИВ КИНОТЕАТР ЗАРЯ, Калининград 236019 Россия",54.72108,20.48301
10358697,2020-12-15,Калининградская область,Зеленоградский район,Рестораны,,,Остермаер,"Ул. Гагарина, 2, Рыбачий Россия",55.152782,20.855717
19001122,2020-12-15,Калининградская область,Калининград,Рестораны,,,Gustav Grossmann,"Красная,  11, Калининград 236022 Россия",54.72111,20.47519
11549417,2020-12-15,Калининградская область,Калининград,Рестораны,,,"Пивоварня ""Брецель""","ул. Невского, 10, Калининград 236016 Россия",54.72299,20.527868
15309182,2020-12-15,Калининградская область,Калининград,Рестораны,,,ПАР GRILL&BAR,"Горького, 16, Калининград 236029 Россия",54.72156,20.50925
14008874,2020-12-15,Калининградская область,Балтийск,Рестораны,,Кафе,Кармелитка,"ул. Гоголя, 2а, Балтийск 236008 Россия",54.6576,19.90784
11549317,2020-12-15,Калининградская область,Калининград,Рестораны,,Бар,Резиденция королей,"ул. Александра Невского, 10, Калининград 236016 Россия",54.723095,20.528141
3770555,2020-12-15,Калининградская область,Калининград,Рестораны,,,Наутилус,"Московский пр-кт, д. 40, Калининград 236006 Россия",54.70937,20.50269
18322525,2020-12-15,Калининградская область,Калининград,Рестораны,,,Папаша Беппе,"Театральная, 30, Калининград 236022 Россия",54.718613,20.49892
21104408,2020-12-15,Калининградская область,Калининград,Рестораны,,,АСАДО стейк&вино,"Грига, 26, Калининград 236016 Россия",54.712524,20.530931
6882052,2020-12-15,Калининградская область,Калининград,Рестораны,,,Villa Ченто,"Солнечный бул., 1, Калининград 236006 Россия",54.704723,20.516829
12010355,2020-12-15,Калининградская область,Бережковское,Рестораны,,,Каспар,"Калининградская ул., 60, Бережковское 238150 Россия",54.6309,21.658901
6130211,2020-12-15,Калининградская область,Зеленоградский район,Рестораны,,,Монополь,"Володарского, 7 Reference point Roza vetrov Square, Зеленоградск 238530 Россия",54.962856,20.48233
6129801,2020-12-15,Калининградская область,Калининград,Рестораны,,,Пышка,"Профессора Баранова, 34, Калининград 236029 Россия",54.7221,20.51345
12958827,2020-12-15,Калининградская область,Калининград,Рестораны,,"Бар,Кафе,Паб",Бухта,"ул.Генерала Буткова 19, Калининград 236006 Россия",54.709152,20.495655
6129788,2020-12-15,Калининградская область,Калининград,Рестораны,,,Пани Ева,"Космонавта Леонова, 21-25а, Калининград 236022 Россия",54.72118,20.48239
3766822,2020-12-15,Калининградская область,Калининград,Рестораны,,,Гранд Холл,"Космонавта Леонова ул., 18, Калининград 236022 Россия",54.72115,20.48249
6129616,2020-12-15,Калининградская область,Балтийск,Рестораны,,,Стрекоза,"Литке, 10а, Балтийск 238520 Россия",54.65186,19.90115
12296300,2020-12-15,Калининградская область,Калининград,Рестораны,,,Пан Пончик,"ул. Гайдара, 171, Калининград 236000 Россия",54.74242,20.510574
3775871,2020-12-15,Калининградская область,Калининград,Рестораны,,,Амстердам,"ул. Литовский вал, д. 38, Калининград 236016 Россия",54.71684,20.53247
6129869,2020-12-15,Калининградская область,Калининград,Рестораны,,,Фьюжн экспресс,"Горького, 23а, Калининград 236029 Россия",54.721813,20.507458
2317196,2020-12-15,Калининградская область,Калининград,Отели,,,Гостиница Старая Аптека,"ул. Центральная, д. 31а Kaliningrader Gebiet, Калининград 238012 Россия",54.76669,20.508402
10294310,2020-12-15,Калининградская область,Калининград,Отели,,,Gorkogo 162 Inn,"ул. Горького, 162, Калининград 236029 Россия",54.721813,20.507458
15828431,2020-12-15,Калининградская область,Светлогорский район,Отели,,,Apartments on Mayakovskogo,"Street Mayakovskogo 5, Светлогорск 238560 Россия",54.94057,20.15885
18920711,2020-12-15,Калининградская область,Калининград,Рестораны,,,Кошерная Столовая,"Октябрьская, 1а, Калининград 236006 Россия",54.70578,20.51494
21215440,2020-12-15,Калининградская область,Калининград,Отели,,,Vanva Aparthotel,"Ulitsa Vereshchagina 5, Калининград 236029 Россия",54.73885,20.507204
20250390,2020-12-15,Калининградская область,Светлогорский район,Рестораны,,,Crazy Tomatos,"ул. Гагарина, 9а, Светлогорск 238560 Россия",54.940376,20.157393
4583317,2020-12-15,Калининградская область,Черняховск,Отели,,,"Гостиница ""Георгенбург"" ","ул. Центральная, 10, Черняховск 238151 Россия",54.60019,21.9689
5021911,2020-12-15,Калининградская область,Пионерский,Отели,,,"Отель ""Наталья""","Калининградское шоссе, 2Б, Пионерский Россия",54.94901,20.22438
6965737,2020-12-15,Калининградская область,Светлогорский район,Отели,,,Гостевой дом Гренч,"ул. Архитектора Попова, 6, Светлогорск 238563 Россия",54.94082,20.1359
6966099,2020-12-15,Калининградская область,Гвардейск,Отели,,,Рица,"ул. Замковая, 7, Гвардейск 238210 Россия",54.64775,21.07461
6622362,2020-12-15,Калининградская область,Зеленоградский район,Отели,,,"Гостевой дом ""Прибалтийский силуэт""","Приморская ул., 23, Зеленоградск 238530 Россия",54.85205,19.94766
7710415,2020-12-15,Калининградская область,Светлогорский район,Отели,,,Домик на Садовой,"Sadovaya Street 1, Светлогорск 238560 Россия",54.94232,20.15758
6528828,2020-12-15,Калининградская область,Светлогорский район,Отели,,,Вилла Ланвиль,"ул. Садовая, д.2б, Светлогорск 238560 Россия",54.94265,20.157335
7071823,2020-12-15,Калининградская область,Балтийск,Отели,,,Гостевой дом «Рай Пруссии»,"Verkhnyaya Morskaya Ulitsa 32, Балтийск 238520 Россия",54.68066,19.91681
3156540,2020-12-15,Калининградская область,Калининград,Отели,,,"Гостевой дом ""Газ-Ойл""","ул. Офицерская, д.10, Калининград 236022 Россия",54.72244,20.47163
2708720,2020-12-15,Калининградская область,Черняховск,Отели,,,Гостиница Пивной двор,"Суворова ул.,14, Черняховск 238150 Россия",54.6319,21.81322
8445842,2020-12-15,Калининградская область,Талпаки,Отели,,,Поляна,"ул. Молодежная 2, Талпаки 238214 Россия",54.67381,20.13864
12262476,2020-12-15,Калининградская область,Зеленоградский район,Отели,,,Villa Bergen,"Morskaya ulitsa, Морское 238535 Россия",55.23145,20.91831
7367284,2020-12-15,Калининградская область,Ижевское,Отели,,,Славянский двор,"ул. Светлая, д. 3а, Ижевское 238345 Россия",54.69889,20.204445
305170,2020-12-15,Калининградская область,Калининград,Отели,,,Мартон Олимпик,"Московский пр., 175, Калининград 236006 Россия",54.71017,20.54705
12375151,2020-12-15,Калининградская область,Калининград,Отели,,,Karolinenhof,"Ulitsa Prazhskaya 38, Калининград 236016 Россия",54.72447,20.53648
6516957,2020-12-15,Калининградская область,Калининград,Отели,,,Силуэт-Калининград,"Подполковника Иванникова, 8, Калининград 236016 Россия",54.71678,20.50597
6125903,2020-12-15,Калининградская область,Зеленоградский район,Отели,,,Гостевой дом Indian House,"ул. Победы, 6, Зеленоградск 238530 Россия",54.95656,20.46753
6162157,2020-12-15,Калининградская область,Зеленоградский район,Отели,,,"Гостиница ""Трактир""","Лесная ул., 8, Рыбачий 238535 Россия",55.1559,20.83808
2491460,2020-12-15,Калининградская область,Светлогорский район,Отели,,,"Оздоровительный комплекс ""Олимп""","ш. Калининградское, д. 72б, Светлогорск 238560 Россия",54.93987,20.15479
10440762,2020-12-15,Калининградская область,Калининград,Отели,,,Gostinitsa Akademicheskaya-Kaliningrad,"Artilleriyskaya ulitsa 62, Калининград 236016 Россия",54.73273,20.55404
12136236,2020-12-15,Калининградская область,Калининград,Отели,,,"Oh, my Kant na Olshtynskoy","44В Olshtynskaya ulitsa, Калининград 236039 Россия",54.69589,20.51069
2695796,2020-12-15,Калининградская область,Калининград,Отели,,,Комфорт,"ул. Арсенальная, д. 9, Калининград 236009 Россия",54.74572,20.54479
6215671,2020-12-15,Калининградская область,Калининград,Отели,,,Гостиница Buen Retiro,"Рабочий пер., 7, Калининград 236005 Россия",54.653004,20.359825
2695842,2020-12-15,Калининградская область,Калининград,Отели,,,Авиатор,"ул. Чапаева, д. 30, Калининград 236010 Россия",54.72143,20.46936
6129947,2020-12-15,Калининградская область,Зеленоградский район,Рестораны,,,Таверна Капитан Флинт,"Курортный пер. 1, Зеленоградск Россия",54.96246,20.48292
12010345,2020-12-15,Калининградская область,Калининград,Рестораны,,,Кафе Мамо,"ул. Невского, 51В, Калининград 236016 Россия",54.72435,20.52537
15614067,2020-12-15,Калининградская область,Черняховск,Рестораны,,,У Солохи,"Садовая, 5, Черняховск 238150 Россия",54.63567,21.80712
16851811,2020-12-15,Калининградская область,Калининград,Рестораны,,,Айсуши,"Балашовская, 5, Калининград 236003 Россия",54.70514,20.56993
3604553,2020-12-15,Калининградская область,Советск,Рестораны,,,"Пиццерия ""Мама Мия""","ул. Школьная, д. 3, Советск 238750 Россия",55.080624,21.890186
2326399,2020-12-15,Калининградская область,Калининград,Рестораны,,Паб,Кропоткинъ,"ул. Театральная, д. 30 ТРЦ ""Европа"", Калининград 236022 Россия",54.718082,20.50123
17322594,2020-12-15,Калининградская область,Зеленоградский район,Рестораны,,,Бургер Бар,"Крымская,  3, Зеленоградск 238326 Россия",54.95969,20.47268
18313367,2020-12-15,Калининградская область,Светлогорский район,Рестораны,,,Добрая Столовая,"Ленина,  36, Светлогорск 238560 Россия",54.943523,20.144936
14024239,2020-12-15,Калининградская область,Калининград,Рестораны,,,Кафе Май,"Ulitsa Chaykovskogo, 5, Калининград 236022 Россия",54.72097,20.480915
7355010,2020-12-15,Калининградская область,Калининград,Рестораны,,,РиверСайд,"ул. Ялтинская 20А, Калининград 236006 Россия",54.70593,20.544292
12579980,2020-12-15,Калининградская область,Калининград,Рестораны,,,Табаско,"ул. Автомобильная, 18Б, Калининград 236011 Россия",54.675106,20.492733
6129902,2020-12-15,Калининградская область,Светлогорский район,Рестораны,,,Марио Пицца,"Береговой пер, 2, Светлогорск 238560 Россия",54.945797,20.148317
12529066,2020-12-15,Калининградская область,Калининград,Рестораны,,,Etna,"ул. Космонавта Леонова, 64A, Калининград 236023 Россия",54.733753,20.48166
10842911,2020-12-15,Калининградская область,Багратионовск,Рестораны,,,Ресторан Серый Гусь,"ул. Красноармейская д.27 Отель Серый Гусь, Багратионовск 238420 Россия",54.56536,20.16928
10366250,2020-12-15,Калининградская область,Светлогорский район,Рестораны,,,Кафе Вика,"ул. Октябрьская, 11 A, Светлогорск 238563 Россия",54.94292,20.154854
10748820,2020-12-15,Калининградская область,Калининград,Отели,,,Комнаты отдыха вокзала Калининград-Южный,"Железнодорожная ул., 29, Калининград 236039 Россия",54.695442,20.496061
6129746,2020-12-15,Калининградская область,Калининград,Рестораны,,Фастфуд,Макдоналдс,"Театральная, 30, Калининград 236022 Россия",54.71804,20.49984
300429,2020-12-15,Калининградская область,Калининград,Отели,,,Гостиница Командор,"Счастливая ул., 1, Калининград 236038 Россия",54.73948,20.55607
2649376,2020-12-15,Калининградская область,Балтийск,Отели,,,Балтия,"пр. Ленина, д. 28б, Балтийск 238520 Россия",54.64903,19.90437
1857916,2020-12-15,Калининградская область,Калининград,Отели,,,Гостевой дом Фридрихсхофф,"ул. Чкалова, 31A, Калининград 236022 Россия",54.7233,20.45996
12851196,2020-12-15,Калининградская область,Отрадное,Отели,,,Вилла Гретхен,"ул. Санаторная, 4, Отрадное Россия",54.94114,20.113503
9763295,2020-12-15,Калининградская область,Калининград,Отели,,,"Хостел ""Чердак""","улица Чернышевского 60, Калининград 236022 Россия",54.725895,20.465902
10593810,2020-12-15,Калининградская область,Зеленоградский район,Отели,,,Отель Вальде Парк,"ул. Центральная, 17, Лесной 238534 Россия",55.01094,20.6177
7614403,2020-12-15,Калининградская область,Калининград,Отели,,,Koenig Hostel,"ул. А. Невского, 145, Калининград 236008 Россия",54.72435,20.52537
2701334,2020-12-15,Калининградская область,Калининград,Отели,,,Калининградгражданстрой гостиница,"Красная улица, д. 136, Калининград 236023 Россия",54.72111,20.47519
11619480,2020-12-15,Калининградская область,Светлогорский район,Отели,,,"Гостиница ""Чайка""","Калининградский пр-т 70В, Светлогорск 238560 Россия",54.9407,20.13811
6412282,2020-12-15,Калининградская область,Черняховск,Отели,,,Усадьба Королевич,"ул. Черняховского, 5, Краснополянское, Черняховск 238161 Россия",54.600384,21.968979
2697290,2020-12-15,Калининградская область,Светлогорский район,Отели,,,Раушен 1 гостиница,"Калининградский проспект, д. 70Б, Светлогорск 238560 Россия",54.92679,20.17269
10441331,2020-12-15,Калининградская область,Светлогорский район,Отели,,,Apartments Eliza,"ulitsa Lenina 15, Светлогорск 238560 Россия",54.94371,20.16
12923888,2020-12-15,Калининградская область,Светлогорский район,Отели,,,Хостел Этаж,"Ул. Дачная 4, Светлогорск 238560 Россия",54.94492,20.175837
12149221,2020-12-15,Калининградская область,Калининград,Отели,,,Shtenvald,"ул. Монетная, 5, Калининград 236001 Россия",54.75066,20.49717
3215479,2020-12-15,Калининградская область,Зеленоградский район,Отели,,,Золотые Пески,"ул. Первомайская, д. 17, Морское 236000 Россия",55.231003,20.921276
2696397,2020-12-15,Калининградская область,Багратионовский район,Отели,,,Мушкино гостевой комплекс,"пос. Мушкино 5А Багратионовский район, Мушкино 238460 Россия",54.55355,20.279774
10326781,2020-12-15,Калининградская область,Калининград,Отели,,,Hostel Hanse,"Chaykovskogo 17, Калининград 236022 Россия",54.72375,20.49474
3545424,2020-12-15,Калининградская область,Балтийск,Отели,,,Валентина,"ул. Адмирала Головко, д. 1, Балтийск 238521 Россия",54.64069,19.8911
2695845,2020-12-15,Калининградская область,Калининград,Отели,,,Ратсхоф-Надежда,"ул. Белинского, д. 3, Калининград 236010 Россия",54.71736,20.45233
12906882,2020-12-15,Калининградская область,Зеленоградский район,Отели,,,Guest House Anhalt,"Pushkina 2, Зеленоградск 238530 Россия",54.95886,20.47115
19270312,2020-12-15,Калининградская область,Зеленоградский район,Отели,,,Exclusive Hotel,"28 Ulitsa Volodarskogo, Зеленоградск 238326 Россия",54.96505,20.48637
2697747,2020-12-15,Калининградская область,Калининград,Отели,,,Гостевой дом Орион,"ул. Иванникова, д. 8, Калининград 236040 Россия",54.71784,20.506334
6129877,2020-12-15,Калининградская область,Калининград,Рестораны,,,Шарк,"Черняховского, 19а, Калининград 236016 Россия",54.71855,20.50219
12078785,2020-12-15,Калининградская область,Калининград,Рестораны,,,Гарри Джонсон'с бар,"Улица Профессора Баранова 2Б, Калининград 236029 Россия",54.719666,20.490438
2326405,2020-12-15,Калининградская область,Калининград,Рестораны,,,Ресторан Геркулес,"пр-кт Мира, д. 105, Калининград 236010 Россия",54.720974,20.456003
4154733,2020-12-15,Калининградская область,Зеленоградский район,Рестораны,,Паб,Маяковский,"Куршская Коса, Лесной Россия",55.01531,20.610292
13455880,2020-12-15,Калининградская область,Калининград,Рестораны,,Кафе,Прачечная,"Пр-кт Мира, 74-76, Калининград 236019 Россия",54.72059,20.479767
9997252,2020-12-15,Калининградская область,Калининград,Рестораны,,"Быстрые перекусы,Фастфуд",Дёнер Хит,"Московский пр., 133 A, Калининград 236006 Россия",54.70987,20.491806
7187356,2020-12-15,Калининградская область,Пионерский,Рестораны,,,Трактир,"ул. Комсомольская, 11А, Пионерский 238590 Россия",54.95164,20.224247
10717223,2020-12-15,Калининградская область,Балтийск,Рестораны,,Кафе,Жемчужина,"Морской бульвар, 6 в гостинице Золотой якорь, Балтийск 238520 Россия",54.639236,19.890598
12174754,2020-12-15,Калининградская область,Зеленоградский район,Рестораны,,,Трактиръ Мельница,"ул. Московская, 66, Зеленоградск Россия",54.964417,20.491787
6129805,2020-12-15,Калининградская область,Калининград,Рестораны,,,Пельменница,"Победы площадь, 10, Калининград 236010 Россия",54.71939,20.47359
3770857,2020-12-15,Калининградская область,Калининград,Рестораны,,Кафе,Табаско,"ул. Горького, 154а, Калининград 236029 Россия",54.74153,20.50409
6129824,2020-12-15,Калининградская область,Калининград,Рестораны,,,Сова,"улица Фестивальная Аллея 20, Калининград 236022 Россия",54.726032,20.47018
3768212,2020-12-15,Калининградская область,Светлогорский район,Рестораны,,Кафе,Старый Доктор,"ул. Гагарина, 12 Отель ""Старый доктор"", Светлогорск Россия",54.94116,20.15803
13126305,2020-12-15,Калининградская область,Знаменск,Рестораны,,,Ферма Тюниных,"ул. Набережная, 2a, Знаменск Россия",54.61942,21.227116
13281714,2020-12-15,Калининградская область,Пионерский,Рестораны,,,"Cуши-бар ""Тунец""","ул. Садовая 10, Пионерский 238590 Россия",54.950993,20.224915
13378868,2020-12-15,Калининградская область,Калининград,Рестораны,,,Cafe Molon,"ул. Кирова, 17, Калининград 236022 Россия",54.724937,20.492443
12640673,2020-12-15,Калининградская область,Черняховск,Рестораны,,,Ангел Парк Отель Ресторан,"Гусевское шоссе, 92 км, Черняховск 238151 Россия",54.632442,21.898127
6129937,2020-12-15,Калининградская область,Зеленоградский район,Рестораны,,,Старый город,"Московская, 34, Зеленоградск 238530 Россия",54.960045,20.481878
14058619,2020-12-15,Калининградская область,Калининград,Рестораны,,,Плюшкинъ,"площадь Маршала Василевского,  2, Калининград 236016 Россия",54.720078,20.524208
3762397,2020-12-15,Калининградская область,Калининград,Рестораны,,"Бар,Кафе",Тысяча и одна ночь,"ул. Житомирская, д. 2/4, Калининград Россия",54.71062,20.50661
13337258,2020-12-15,Калининградская область,Калининград,Рестораны,,,Пеперончино 2,"Маточкина, 2а, Калининград 236009 Россия",54.738846,20.48666
5453586,2020-12-15,Калининградская область,Калининград,Отели,,,Гостевой дом на Каштановой,"Каштановая ал., 1В, Калининград 236010 Россия",54.71308,20.46545
6953187,2020-12-15,Калининградская область,Зеленоградский район,Рестораны,,,Ноев Ковчег,"20 км, 4б поселок Переславское, Переславское 238542 Россия",54.81758,20.280731
14759953,2020-12-15,Калининградская область,Правдинск,Отели,,,"Гостевой дом ""Амелия""","ул. Кутузова, 8, Правдинск 238400 Россия",54.44611,21.01618
10642323,2020-12-15,Калининградская область,Светлогорский район,Отели,,,Морская звезда,"пер. Береговой, 8, Светлогорск 238560 Россия",54.94574,20.14869
4007969,2020-12-15,Калининградская область,Светлогорский район,Отели,,,Из дома в дом,"ул. Архитектора Попова, 10в, Светлогорск 238563 Россия",54.93954,20.135933
6879266,2020-12-15,Калининградская область,Калининград,Отели,,,Votre Maison,"ул. Демьяна Бедного 2Б, Калининград 236029 Россия",54.743027,20.513718
6516768,2020-12-15,Калининградская область,Зеленоградский район,Отели,,,Неринга,"Ленина, 27, Зеленоградск 238530 Россия",54.96002,20.47427
10079629,2020-12-15,Калининградская область,Светлогорский район,Отели,,,Балтик Спорт Отель,"Улица Балтийская 15а, Светлогорск 238560 Россия",54.93947,20.15949
7133207,2020-12-15,Калининградская область,Зеленоградский район,Отели,,,Золотые пески,"Улица Володарского 24Г, Зеленоградск 238326 Россия",54.965427,20.489342
2552285,2020-12-15,Калининградская область,Зеленоградский район,Отели,,,Гостевой дом А'море,"ул. Володарского, 28, Зеленоградск 238530 Россия",54.96154,20.48022
5041777,2020-12-15,Калининградская область,Калининград,Отели,,,Хостел Актеон Линдрос,"ул. Энгельса, 14, Калининград 236010 Россия",54.71693,20.45942
2702498,2020-12-15,Калининградская область,Зеленоградский район,Отели,,,Танзания гостевой дом,"Ленина улица, 31, Зеленоградск 238530 Россия",54.96002,20.47427
12396707,2020-12-15,Калининградская область,Балтийск,Отели,,,Розенхойшен,"Нижняя Морская, 10, Балтийск 238520 Россия",54.680607,19.91867
2704367,2020-12-15,Калининградская область,Советск,Отели,,,Россия,"Луначарского улица, д. 2, Советск 238752 Россия",55.08051,21.88798
1802095,2020-12-15,Калининградская область,Калининград,Отели,,,Арт-Отель Пушкин Холл,"ул. Достоевского, д. 19, Калининград 236008 Россия",54.73749,20.53023
6620074,2020-12-15,Калининградская область,Зеленоградский район,Отели,,,Лаптау,"ул. Пушкина, 4, Зеленоградск 238530 Россия",54.959106,20.471542
10100267,2020-12-15,Калининградская область,Гусев,Отели,,,Нанотель,"ул. Зворыкина, дом 4, Гусев 238050 Россия",54.60154,22.181509
3156465,2020-12-15,Калининградская область,Светлогорский район,Отели,,,Зеленый дом,"ул. Архитекора Попова, 3, Светлогорск 238563 Россия",54.94082,20.1359
10101143,2020-12-15,Калининградская область,Светлогорский район,Отели,,,Подгорная 20,"ул. Подгорная д. 20, Светлогорск 238560 Россия",54.93897,20.15475
2263485,2020-12-15,Калининградская область,Калининград,Отели,,,Вилла Татьяна,"ул. Линейная, д. 11а, Калининград 236016 Россия",54.72633,20.523865
4520934,2020-12-15,Калининградская область,Полесский район,Отели,,,"Загородная гостиница ""Дом лесника""","ул. Октябрьская, 18 Сосновка пос., Сосновка 238314 Россия",54.813683,21.35542
2696174,2020-12-15,Калининградская область,Зеленоградский район,Отели,,,Морское гостевой дом,"Дачная улица, д. 6, Морское 238535 Россия",54.43819,21.83344
3768229,2020-12-15,Калининградская область,Зеленоградский район,Рестораны,,Бар,Самбия,"ул. Володарского, д. 20, Зеленоградск Россия",54.964104,20.48386
17700485,2020-12-15,Калининградская область,Калининград,Рестораны,,"Паб,Гастропаб",Веранда Москва-Берлин,"Площадь Победы, 10, Калининград 236040 Россия",54.71934,20.502756
13156767,2020-12-15,Калининградская область,Калининград,Рестораны,,,Якитория,"ул. Театральная, 30 ТЦ Европа, Калининград 236022 Россия",54.71848,20.500557
16868262,2020-12-15,Калининградская область,Калининград,Рестораны,,,Чайно-кальянный дом 1812,"ул. 1812г., 67а, Калининград 236016 Россия",54.711563,20.534159
19076982,2020-12-15,Калининградская область,Калининград,Рестораны,,,Hanami,"Ленинский проспект,  18, Калининград 236006 Россия",54.713978,20.505314
21033517,2020-12-15,Калининградская область,Калининград,Рестораны,,Кафе,Бранч & Боул,"Театральная , 23, Калининград 236006 Россия",54.71704,20.499935
17762488,2020-12-15,Калининградская область,Зеленоградский район,Рестораны,,,Pilot,"Тургенева, 10Г, Зеленоградск 238326 Россия",54.955833,20.479185
10475693,2020-12-15,Калининградская область,Светлогорский район,Рестораны,,,Нимфа,"пер. Береговой, 4, Светлогорск 238560 Россия",54.946068,20.150965
6129618,2020-12-15,Калининградская область,Балтийск,Рестораны,,,Эдэм,"Ленина проспект, 5, Балтийск 238521 Россия",54.64386,19.89263
3771158,2020-12-15,Калининградская область,Калининград,Рестораны,,Бар,Ресторан Про-Суши,"Черняховского ул., 76Б, Калининград 236040 Россия",54.720577,20.516958
6130158,2020-12-15,Калининградская область,Светлогорский район,Рестораны,,,Раушен,"Ленина, 48а, Светлогорск 238560 Россия",54.94254,20.16689
3770198,2020-12-15,Калининградская область,Калининград,Рестораны,,Кафе,Робинзон,"ул. Достоевского, д. 22 а, Калининград 236008 Россия",54.73804,20.53097
9732794,2020-12-15,Калининградская область,Калининград,Рестораны,,Фастфуд,Tasty Lab,"пр. Mira 142Ж, Калининград 236019 Россия",54.721268,20.4504
6129777,2020-12-15,Калининградская область,Калининград,Рестораны,,,Панда,"Ленинский проспект, 63-67, Калининград 236006 Россия",54.716255,20.503244
3771082,2020-12-15,Калининградская область,Калининград,Рестораны,,,Наутилус,"Ленинский проспект, 18, Калининград 236006 Россия",54.713955,20.505672
15018074,2020-12-15,Калининградская область,Калининград,Рестораны,,,The View,"Сергеева, 4, Калининград 236040 Россия",54.7151,20.5156
15202090,2020-12-15,Калининградская область,Калининград,Рестораны,,,Феррум,"Октябрьская, 2, Калининград 236006 Россия",54.705257,20.514454
6129752,2020-12-15,Калининградская область,Калининград,Рестораны,,,Мама мия,"Победы площадь, 10, Калининград 236010 Россия",54.719925,20.50302
9766191,2020-12-15,Калининградская область,Зеленоградский район,Рестораны,,,20-й Меридиан,"ул. Володарского, 24в, Зеленоградск 238530 Россия",54.964764,20.485413
7235395,2020-12-15,Калининградская область,Калининград,Рестораны,,,Суши Лав,"Московский пр. д.39, Калининград 236006 Россия",54.71017,20.50476
12191444,2020-12-15,Калининградская область,Калининград,Рестораны,,,Delimeal Food Factory,"ул. Сержанта Колоскова, 1Б, Калининград 236022 Россия",54.719463,20.485329
6129833,2020-12-15,Калининградская область,Калининград,Рестораны,,,Старый пират,"Ленинский проспект, 42Б, Калининград 236039 Россия",54.70195,20.504398
6129894,2020-12-15,Калининградская область,Светлогорский район,Рестораны,,,Ветерок,"Береговой пер, 2а, Светлогорск 238560 Россия",54.94489,20.149918
6129872,2020-12-15,Калининградская область,Калининград,Рестораны,,,Фьюжн экспресс,"улица Космонавта Леонова, 34Б, Калининград 236022 Россия",54.728954,20.481894
3754955,2020-12-15,Калининградская область,Калининград,Рестораны,,,Бухара,"Профессора Баранова ул., 34 Проспект Победы, 40, Калининград 236029 Россия",54.720745,20.506067
3451717,2020-12-15,Калининградская область,Гурьевск,Отели,,,"Гостевой Дом ""Охота""","Свободное, 5, Гурьевск 238324 Россия",54.77772,20.586231
2520569,2020-12-15,Калининградская область,Балтийск,Отели,,,Золотая орхидея,"Верхняя Морская улица, д. 6, Балтийск 238520 Россия",54.68066,19.91681
6876926,2020-12-15,Калининградская область,Зеленоградский район,Отели,,,20-ый Меридиан,"ул. Володарского, 24в, Зеленоградск 238530 Россия",54.964672,20.484722
6398178,2020-12-15,Калининградская область,Калининград,Отели,,,Хостел Эдьюкейшен,"улица Томская 19, Калининград 236016 Россия",54.71398,20.52628
14112849,2020-12-15,Калининградская область,Зеленоградский район,Отели,,,Куршале,Лесной 238534 Россия,55.03359,20.651325
4724558,2020-12-15,Калининградская область,Зеленоградский район,Отели,,,"Гостиница ""Логер Хаус""","Железнодорожная ул., 1, Зеленоградск 238530 Россия",54.958263,20.471344
6400746,2020-12-15,Калининградская область,Светлогорский район,Отели,,,Светлогорский военный санаторий,"Октябрьская ул., 13, Светлогорск Россия",54.940735,20.157127
9853186,2020-12-15,Калининградская область,Светлогорский район,Отели,,,Вилла Готланд,"ул. Ленина, дом 37, Светлогорск 238560 Россия",54.943108,20.139639
6516982,2020-12-15,Калининградская область,Зеленоградский район,Отели,,,САНАТОРИЙ ЗЕЛЕНОГРАДСК,"ул. Пугачева, 11, Зеленоградск 238530 Россия",54.96225,20.47965
7102589,2020-12-15,Калининградская область,Зеленоградский район,Отели,,,Гостиница Янтарный сезон,"ул. Юрия Гагарина, 41Б, Зеленоградск 238530 Россия",54.954536,20.455893
12202838,2020-12-15,Калининградская область,п. Заозерное,Отели,,,Вилла Марита,"ул. Солнечная, 27, п. Заозерное 297493 Россия",45.157482,33.260498
10273634,2020-12-15,Калининградская область,Калининград,Отели,,,Хостел 39 Регион,"ул. Куйбышева 40, Калининград 236016 Россия",54.725044,20.537989
8330066,2020-12-15,Калининградская область,Калининград,Отели,,,Хостел Папа House,"ул. Тихоненко, д. 29а, Калининград 236010 Россия",54.71888,20.42994
2096344,2020-12-15,Калининградская область,Калининград,Отели,,,Отель Блюз,"ул. Бородинская, д. 10, Калининград 236010 Россия",54.71564,20.472
21054620,2020-12-15,Калининградская область,Светлогорский район,Отели,,,"Отель ""Хартман""","Октябрьская, 1/10, Светлогорск 238560 Россия",54.94105,20.157255
10746994,2020-12-15,Калининградская область,Калининград,Отели,,,Амалиенау Хостел и Апартаменты,"ул. Карла Маркса, 19, Калининград 236022 Россия",54.72901,20.48659
6577612,2020-12-15,Калининградская область,Светлогорский район,Отели,,,"Апарт-отель ""Мечта""","ул. Маяковского, 16А, Светлогорск 238560 Россия",54.941,20.15895
14982453,2020-12-15,Калининградская область,Калининград,Отели,,,Отель БРИЗ,"улица Карла Маркса дом 10, Калининград 236022 Россия",54.728786,20.483246
2550491,2020-12-15,Калининградская область,Зеленоградский район,Отели,,,Самбия,"Володарского ул., 20, Зеленоградск 238530 Россия",54.96417,20.483965
12001012,2020-12-15,Калининградская область,Калининград,Рестораны,,,Быков Бар,"ул. Профессора Баранова, 40 ТРЦ ""Европа"", Калининград 236029 Россия",54.718906,20.499395
6129946,2020-12-15,Калининградская область,Зеленоградский район,Рестораны,,,У Нептуна,"ул. Гагарина, 2Б, Зеленоградск 238530 Россия",54.960384,20.46947
6129779,2020-12-15,Калининградская область,Калининград,Рестораны,,,Панда,"Багратиона, 81-85, Калининград 236039 Россия",54.69913,20.51707
13320241,2020-12-15,Калининградская область,Калининград,Рестораны,,,Чайхана Калининград-Ташкент,"ул. Ульяны Громовой, д. 4А, Калининград 236011 Россия",54.716896,20.500237
20239671,2020-12-15,Калининградская область,Зеленоградский район,Рестораны,,,Кафе “Густо Fresco”,"Тургенева 10д ТЦ”Нептун, Зеленоградск 238326 Россия",54.955357,20.480871
8527438,2020-12-15,Калининградская область,Зеленоградский район,Рестораны,,"Бар,Паб",Mistelle,"ул. Гагарина, 38 А, Зеленоградск 238530 Россия",54.95503,20.454756
9765920,2020-12-15,Калининградская область,Калининград,Рестораны,,,Встреча,"Площадь Калинина 1Б, Калининград 236039 Россия",54.69668,20.497946
3770770,2020-12-15,Калининградская область,Калининград,Рестораны,,Кафе,Круассан кафе,"пр-кт Мира, д. 23/27, Калининград 236022 Россия",54.719837,20.486692
9741207,2020-12-15,Калининградская область,Зеленоградский район,Рестораны,,Кафе,"Трактир ""У дороги""","Улица Победы, Рыбачий Россия",55.158123,20.843584
6129681,2020-12-15,Калининградская область,Калининград,Рестораны,,,"Кафе ""Руно""","улица Нарвская, 47А, Калининград 236022 Россия",54.73363,20.496984
14043313,2020-12-15,Калининградская область,Калининград,Рестораны,,,Британника Север,"ул. Горького,  160а, Калининград 236029 Россия",54.742207,20.503677
6681033,2020-12-15,Калининградская область,Калининград,Рестораны,,,Берлин,"Киевская ул., 17б, Калининград 236039 Россия",54.69102,20.50001
6129899,2020-12-15,Калининградская область,Светлогорский район,Рестораны,,,Светлогорск 2,"Ленина, 33, Светлогорск 238560 Россия",54.94254,20.16689
12842886,2020-12-15,Калининградская область,Зеленоградский район,Рестораны,,,КАФЕ 12,"ул. Ленина, 32A, Зеленоградск 238530 Россия",54.956753,20.463453
3776364,2020-12-15,Калининградская область,Калининград,Рестораны,,Бар,Папаша Беппе,"улица Космонавта Леонова, 66а, Калининград 236023 Россия",54.734165,20.481655
10550566,2020-12-15,Калининградская область,Неман,Рестораны,,,Deutsches Haus,"ул. Победы, 51, Неман 238710 Россия",55.04261,22.020645
6182524,2020-12-15,Калининградская область,Калининград,Рестораны,,,Калининград-Ташкент,"Театральная, 21, Калининград 236006 Россия",54.717068,20.50034
3770942,2020-12-15,Калининградская область,Светлогорский район,Рестораны,,,Русь,"ул. Верещагина, д. 10 отель ""Русь"", Светлогорск Россия",54.946762,20.165894
3759312,2020-12-15,Калининградская область,Калининград,Рестораны,,Кафе,Круассан-кафе,"Театральная ул., 30, Калининград 236022 Россия",54.717648,20.500744
8458583,2020-12-15,Калининградская область,Калининград,Рестораны,,,Лобби-бар,"ул. Октябрьская, 6А Гостиница Гелиопарк Кайзерхоф, Калининград 236005 Россия",54.702812,20.515705
6129634,2020-12-15,Калининградская область,Калининград,Рестораны,,,Гриль-хаус Charing Cross,"Александра Невского, 53, Калининград 236016 Россия",54.73177,20.530867
12363669,2020-12-15,Калининградская область,Калининград,Рестораны,,,Кукси39,"Парковый пер., 7/2, Калининград Россия",54.71646,20.45631
3778015,2020-12-15,Калининградская область,Гурьевский район,Рестораны,,,Домик в деревне,"ул. Шоссейная, д. 3а, Моршанское Россия",54.855923,20.512783
6129898,2020-12-15,Калининградская область,Светлогорский район,Рестораны,,,Зеештерн,"Морская, 11, Светлогорск 238560 Россия",54.94583,20.149855
10748981,2020-12-15,Калининградская область,Гвардейск,Рестораны,,,"Кафе ""Пруссия""","Центральный, дом 5, Гвардейск 238210 Россия",54.647522,21.067778
5527673,2020-12-15,Калининградская область,Черняховск,Отели,,,"Парк-отель ""Ангел""","Гусевское ш., 92 км, Черняховск 238151 Россия",54.63572,21.898783
2703888,2020-12-15,Калининградская область,Светлогорский район,Отели,,,Пансионат Раушен,"ул. Ленина, 48 А, Светлогорск 238560 Россия",54.94254,20.16689
2275644,2020-12-15,Калининградская область,Калининград,Отели,,,"Гостиница ""Маяк""","ул. Солдатская, 2, Калининград 236023 Россия",54.73821,20.480621
4413252,2020-12-15,Калининградская область,Светлогорский район,Отели,,,"Гостиница ""Олимп""","Калининградский проспект, дом 72В, Светлогорск 238560 Россия",54.937923,20.140991
2550356,2020-12-15,Калининградская область,Зеленоградский район,Отели,,,Вилла Лана,"ул. Гагарина, 3A, Зеленоградск 238530 Россия",54.959057,20.46877
14528889,2020-12-15,Калининградская область,Калининград,Отели,,,"Отель ""У Медового Mоста""","ул. Октябрьская, 2, Калининград 236006 Россия",54.70525,20.514465
2465512,2020-12-15,Калининградская область,Калининград,Отели,,,Стрелецкий,"ул. Стрелецкая, д. 7, Калининград 236038 Россия",54.718296,20.544815
1785025,2020-12-15,Калининградская область,Светлогорский район,Отели,,,"Арт-отель ""Люмьер""","Лермонтовский пер., д. 2а, Светлогорск 238560 Россия",54.94372,20.148998
2707433,2020-12-15,Калининградская область,Светлогорский район,Отели,,,Дом Сказочника гостевой дом,"Гофмана переулок, д. 4, Светлогорск 238560 Россия",54.9405,20.146006
12257212,2020-12-15,Калининградская область,Калининград,Отели,,,Самый центр Хостел,"ул. Генерала Галицкого, 1-3, Калининград 236006 Россия",54.716103,20.499498
1461307,2020-12-15,Калининградская область,Калининград,Отели,,,Гостиница Обертайх ,"Верхнеозерная улица, д. 11, Калининград 236008 Россия",54.730247,20.519573
10417114,2020-12-15,Калининградская область,Калининград,Отели,,,KD Hostel,"Ленинский проспект, 1, Калининград 236006 Россия",54.71844,20.5023
2335277,2020-12-15,Калининградская область,Калининград,Отели,,,Юбилейный Люкс,"ул. Университетская, д. 2г, Калининград 236016 Россия",54.71383,20.50951
2280024,2020-12-15,Калининградская область,Светлогорский район,Отели,,,Универсал,"Некрасова улица, д. 3, Светлогорск 238560 Россия",54.942635,20.147223
8263278,2020-12-15,Калининградская область,Калининград,Отели,,,Crazy Dog Hostel,"ул. Тельмана 25, Калининград 236008 Россия",54.734356,20.521544
2559639,2020-12-15,Калининградская область,Зеленоградский район,Отели,,,Кошкин Дом,"ул. Гагарина, д. 1а, Зеленоградск 238530 Россия",54.959423,20.469717
2692621,2020-12-15,Калининградская область,Зеленоградский район,Отели,,,Гостевой дом Элиза Заркау,"ул. Набережная, 2, Лесной 238530 Россия",55.011303,20.619295
8435484,2020-12-15,Калининградская область,Калининград,Отели,,,Лайк Хостел,"ул. Тихая, 17, Калининград 236029 Россия",54.729862,20.50689
11965503,2020-12-15,Калининградская область,Калининград,Отели,,,Хостел Суффикс,"УЛИЦА МАРШАЛА БАГРАМЯНА 36, Калининград 236006 Россия",54.707092,20.491615
16858560,2020-12-15,Калининградская область,Зеленоградский район,Отели,,,Элиза БонАпарт,"Железнодорожная, 26a, Зеленоградск 238530 Россия",54.95823,20.472
8499124,2020-12-15,Калининградская область,Зеленоградский район,Рестораны,,,Пиццерия Геркулес,"ул. Пограничная, 14а Гостиница Геркулес, Зеленоградск 238326 Россия",54.95993,20.48414
1106530,2020-12-15,Калининградская область,Калининград,Рестораны,,,Солнечный камень,"Маршала Василевского площадь, 3, Калининград 236016 Россия",54.72216,20.523869
18380144,2020-12-15,Калининградская область,Калининград,Рестораны,,Фастфуд,Лепим и варим,"Проспект Мира, 56а Mosaic Steps, Калининград 236019 Россия",54.72114,20.48277
3776560,2020-12-15,Калининградская область,Светлогорский район,Рестораны,,"Кафе,Фастфуд",Блинная,"ул. Октябрьская, 22, Светлогорск Россия",54.943478,20.153793
10121851,2020-12-15,Калининградская область,Калининград,Рестораны,,,Villa Ченто,"Пл. Победы, 1, Калининград 236022 Россия",54.719585,20.500826
13115586,2020-12-15,Калининградская область,Светлогорский район,Рестораны,,Кафе,ErmaCoffee,"Калининградский проспект, 5а, Светлогорск 238563 Россия",54.92679,20.17269
21211446,2020-12-15,Калининградская область,Светлогорский район,Рестораны,,,Алт Плац,"Ленина,  17а, Светлогорск 238560 Россия",54.944286,20.155333
3756420,2020-12-15,Калининградская область,Светлогорский район,Рестораны,,,Falke Hotel Resort,"ул. Ленина, д. 16, Светлогорск Россия",54.94397,20.15831
6129662,2020-12-15,Калининградская область,Калининград,Рестораны,,,Астер,"Литовский Вал, 1, Калининград 236016 Россия",54.722424,20.526342
8349648,2020-12-15,Калининградская область,Светлогорский район,Рестораны,,,Шатер,"Динамо, 8а, Светлогорск 238560 Россия",54.9444,20.156494
10819743,2020-12-15,Калининградская область,Калининград,Рестораны,,,Наше Кафе,"ул.Эпроновская 20, Калининград 236039 Россия",54.70398,20.512903
4191010,2020-12-15,Калининградская область,Орловка,Рестораны,,,"Ресторан ""Усадьба""","ул. Заречная, д. 8, Орловка 238324 Россия",54.792038,20.52915
3184288,2020-12-15,Калининградская область,Калининград,Рестораны,,,Папаша Беппе,"Ленинский проспект, 20-26, Калининград 236006 Россия",54.713425,20.506407
19467562,2020-12-15,Калининградская область,Янтарный,Рестораны,,,Базилик,"Советская,  22, Янтарный 238580 Россия",54.87578,19.936945
9747764,2020-12-15,Калининградская область,Калининград,Рестораны,,,Ibis Kitchen Restaurant,"Московский проспект, 52, Калининград 236006 Россия",54.70909,20.507307
8518387,2020-12-15,Калининградская область,Калининград,Рестораны,,,Ложка кафе,"Московский проспект 83, Калининград 236001 Россия",54.70943,20.516764
1106523,2020-12-15,Калининградская область,Калининград,Рестораны,,,Dolce Vita,"Маршала Василевского площадь, 2, Калининград 236016 Россия",54.719643,20.524197
3770961,2020-12-15,Калининградская область,Светлогорский район,Рестораны,,Кафе,Ветерок,"Береговой переулок, д. 3, Светлогорск 238560 Россия",54.94499,20.150013
8345172,2020-12-15,Калининградская область,Калининград,Рестораны,,,Булочная на Хмельницкого,"Богдана Хмельницкого, 33-37, Калининград 236039 Россия",54.697098,20.50767
3164033,2020-12-15,Калининградская область,Зеленоградский район,Рестораны,,,Ресторан Альтримо,"ул.Пограничная 11, Рыбачий 238583 Россия",55.162354,20.847778
10587376,2020-12-15,Калининградская область,Светлогорский район,Рестораны,,,"Кафе ""Белый кит""","Ленина,11, Светлогорск 238560 Россия",54.945713,20.159021
4223548,2020-12-15,Калининградская область,Зеленоградский район,Рестораны,,Кафе,"Кафе-бар ""Фанат""","ул. Московская, 66, Зеленоградск 238326 Россия",54.95924,20.47601
12998764,2020-12-15,Калининградская область,Калининград,Рестораны,,,Эривань,"Советский проспект, 13, Калининград 236022 Россия",54.72509,20.49673
6129840,2020-12-15,Калининградская область,Калининград,Рестораны,,Бар,Табаско Кловер,"Победы площадь, 10, Калининград 236010 Россия",54.719467,20.502926
6129615,2020-12-15,Калининградская область,Балтийск,Рестораны,,,Панда,"Ленина проспект, 18а, Балтийск 238521 Россия",54.64627,19.89899
8111104,2020-12-15,Калининградская область,Зеленоградский район,Отели,,,Fligerhause Hotel,"Ulitsa Tsentralnaya, 17, Лесной 238534 Россия",55.0094,20.613173
13449488,2020-12-15,Калининградская область,Калининград,Отели,,,FishDorf,"Левобережная ул., 21, Калининград 238634 Россия",55.00907,21.236942
2709453,2020-12-15,Калининградская область,Гусев,Отели,,,Королевский двор,"Зои Космодемьянской улица, д. 2, Гусев 238050 Россия",54.58988,22.200596
6396319,2020-12-15,Калининградская область,Зеленоградский район,Отели,,,Дюна центр,"ул. Лермонтова, 13, Зеленоградск 238530 Россия",54.96085,20.4891
9783388,2020-12-15,Калининградская область,Калининград,Отели,,,Gostevie Kayuti Vityaz,"Naberezhnaya Petra Velikogo 1, Калининград 236006 Россия",54.70667,20.50048
2708804,2020-12-15,Калининградская область,Черняховск,Отели,,,отель У медведя,"Тоннельная улица, д. 7, Черняховск 238151 Россия",54.63119,21.81135
6864473,2020-12-15,Калининградская область,Светлогорский район,Отели,,,Навигатор,"ул. Московская, д. 8, Светлогорск 238563 Россия",54.9436,20.14138
14766107,2020-12-15,Калининградская область,Зеленоградский район,Отели,,,Апарт-отель Резиденция,"Приморская,  д. 6, Зеленоградск 238530 Россия",54.95299,20.454262
15430813,2020-12-15,Калининградская область,Калининград,Отели,,,Tolstoy Art-Hoslel,"Комсомольская, 17, Калининград 236022 Россия",54.72085,20.47939
7807077,2020-12-15,Калининградская область,Калининград,Отели,,,Хостел Смайл,"ул. Коломенская, 27, Калининград 236010 Россия",54.71294,20.46741
10508257,2020-12-15,Калининградская область,Зеленоградский район,Отели,,,"Отель ""Золотая Миля""","Гагарина, дом 12А, Зеленоградск 238530 Россия",54.95807,20.463924
9874582,2020-12-15,Калининградская область,Балтийск,Отели,,,Арт-деревня Витланд,"Калининградское шоссе 10 км, Балтийск 238520 Россия",54.727985,19.945263
1802078,2020-12-15,Калининградская область,Светлогорский район,Отели,,,Пансионат Волна,"Калининградский проспект, д. 68Б, Светлогорск 238560 Россия",54.939743,20.141665
2559838,2020-12-15,Калининградская область,Зеленоградский район,Отели,,,Балтийская корона,"Володарского ул., 8, Зеленоградск 238530 Россия",54.96154,20.48022
2696337,2020-12-15,Калининградская область,Светлогорский район,Отели,,,Старый доктор гостиница,"Гагарина улица, д. 12, Светлогорск 238560 Россия",54.93892,20.15676
6129784,2020-12-15,Калининградская область,Калининград,Рестораны,,,Пани Ева,"Пролетарская, 72а-74а, Калининград 236016 Россия",54.71162,20.51213
6395175,2020-12-15,Калининградская область,Калининград,Рестораны,,,Bo-Bo,"Эпроновская ул., 6, Калининград 236039 Россия",54.70046,20.513802
15643346,2020-12-15,Калининградская область,Калининград,Рестораны,,,Тресковия,"Космонавта Леонова, 55/1, Калининград 236023 Россия",54.73126,20.481071
10954264,2020-12-15,Калининградская область,Калининград,Рестораны,,Бар,Огонек,"ул. Пролетарская, 98, Калининград 236040 Россия",54.722404,20.515718
15532793,2020-12-15,Калининградская область,Пионерский,Рестораны,,Кафе,Amberium cafe,"Портовая,  5а, Пионерский 238590 Россия",54.95464,20.22512
14123411,2020-12-15,Калининградская область,Калининград,Рестораны,,Кафе,Port-o-coffee,"ул. К. Маркса 18, Калининград 236022 Россия",54.728565,20.480404
3387146,2020-12-15,Калининградская область,Янтарный,Рестораны,,,Schloss Hotel Restaurant,"ул. Советская, 68, Янтарный 238581 Россия",54.867016,19.937778
21249246,2020-12-15,Калининградская область,Калининград,Рестораны,,,Ресторан SEASONS,"проспект Мира, 74, Калининград 236022 Россия",54.720818,20.479788
21225219,2020-12-15,Калининградская область,Светлогорский район,Рестораны,,Паб,Бочка Паб,"Ленина, 17, Светлогорск 238560 Россия",54.944134,20.155144
1106532,2020-12-15,Калининградская область,Калининград,Рестораны,,Фастфуд,Солянка,"пр-кт Мира, д. 24-26, Калининград 236022 Россия",54.72036,20.48821
9723468,2020-12-15,Калининградская область,Калининград,Рестораны,,,Королевский пекарь,"ул. Житомирская, 6-8, Калининград 236006 Россия",54.71226,20.506493
14988997,2020-12-15,Калининградская область,Калининград,Рестораны,,,Сачмэли,"Театральная, 30 ТРЦ ""Европа"", 2-й этаж, Атриум Париж, Калининград 236022 Россия",54.718773,20.500643
8500747,2020-12-15,Калининградская область,Светлогорский район,Рестораны,,,Пицерия Папаша Беппе,"ул. Ленина, 8, Светлогорск 238560 Россия",54.943333,20.163307
6129900,2020-12-15,Калининградская область,Светлогорский район,Рестораны,,,Поляндия,"Октябрьская, 23, Светлогорск Россия",54.944065,20.153305
13569713,2020-12-15,Калининградская область,Калининград,Рестораны,,Бар,Ресторан Хоффманн,"ул. Сергеева, 4 Crystal House Suite Hotel & Spa., Калининград 236040 Россия",54.71519,20.515646
21173394,2020-12-15,Калининградская область,Светлогорский район,Рестораны,,,Кафе Mare D'amore,"ул.  Ленина, 15, Светлогорск 238560 Россия",54.944557,20.155489
3778356,2020-12-15,Калининградская область,Калининград,Рестораны,,,Brasserie de Verres en Vers,"Победы площадь, 10, Калининград 236010 Россия",54.71979,20.505085
21243047,2020-12-15,Калининградская область,Калининград,Рестораны,,,Old Brick Pub,"Проспект Мира 19, Калининград 236005 Россия",54.719532,20.487745
8046665,2020-12-15,Калининградская область,Калининград,Рестораны,,,Баста Паста,"Ленинский пр-т, 7-9, Калининград 236006 Россия",54.717888,20.502586
15104597,2020-12-15,Калининградская область,Калининград,Рестораны,,,Торро Гриль,"Озёрный проезд, 2, Калининград 236029 Россия",54.72155,20.516426
14984100,2020-12-15,Калининградская область,Калининград,Рестораны,,,Раковарня Ивана Раковара,"Брамса, 35-37, Калининград 236022 Россия",54.726105,20.49377
14769790,2020-12-15,Калининградская область,Калининград,Рестораны,,,"Эй, Джованни!","ул. Тельмана, дом 3, Калининград 236008 Россия",54.728973,20.516018
10604729,2020-12-15,Калининградская область,Калининград,Рестораны,,"Паб,Гастропаб",Бар Ельцин,"Гаражная, 2, Калининград 236029 Россия",54.724586,20.505045
21178281,2020-12-15,Калининградская область,Светлогорский район,Рестораны,,,Hartman,"ул. Октябрьская, 1/10, Светлогорск 238560 Россия",54.941147,20.157125
15574916,2020-12-15,Калининградская область,Калининград,Рестораны,,,Базилик,"Литовский Вал,  2А, Калининград 236016 Россия",54.72083,20.52592
12476574,2020-12-15,Калининградская область,Светлогорский район,Рестораны,,Кафе,Джелатерия Лабар,"ул.  Ленина, 15 ТЦ Альт Платц (цокольный этаж), Светлогорск 238560 Россия",54.944347,20.155691
6182452,2020-12-15,Калининградская область,Светлогорский район,Рестораны,,Кафе,Круассан кафе,"Ленина, 33а, Светлогорск Россия",54.9441,20.14773
15836031,2020-12-15,Калининградская область,Калининград,Отели,,,Apartment Status,"Ulitsa Aleksandra Nevskogo 59 Apt 25, Калининград 236008 Россия",54.75257,20.543104
17626317,2020-12-15,Калининградская область,Калининград,Отели,,,Guest House Alina,"Fizkulturnaya Ulitsa 5, Калининград 236003 Россия",54.711655,20.543842
15192771,2020-12-15,Калининградская область,Калининград,Отели,,,Honey Bridge Hotel,"Oktyabr'skaya Ulitsa, 2, Калининград 236006 Россия",54.70522,20.51451
2692673,2020-12-15,Калининградская область,Зеленоградский район,Отели,,,Отель Принцесса Элиза,"ул. Володарского, д. 20А, Зеленоградск 238530 Россия",54.963524,20.483143
300487,2020-12-15,Калининградская область,Калининград,Отели,,,Гостиница Москва,"Мира проспект, 19-21, Калининград 236022 Россия",54.71958,20.487055
12030877,2020-12-15,Калининградская область,Сокольники,Отели,,,"Замковое имение ""Лангендорф""","ул. Парковая, 5, Сокольники 238220 Россия",54.66139,20.932817
2143372,2020-12-15,Калининградская область,Светлогорский район,Отели,,,"Гостиница ""Золотая бухта""","ул. Пушкина, 6, Светлогорск 236039 Россия",54.94297,20.14608
628109,2020-12-15,Калининградская область,Калининград,Отели,,,Вилла Гламур,"Верхнеозерная улица, д. 26, Калининград 236008 Россия",54.732456,20.526642
2335267,2020-12-15,Калининградская область,Зеленоградский район,Отели,,,"Отель ""Ренессанс""","ул. Гагарина, 17б, Зеленоградск 238530 Россия",54.95799,20.46622
2537289,2020-12-15,Калининградская область,Калининград,Отели,,,Бутик-Отель Анна,"Тенистая аллея, д. 71, Калининград 236010 Россия",54.721634,20.419504
5534919,2020-12-15,Калининградская область,Калининград,Отели,,,Гостиница «Берлин»,"ул. Киевская, 17б, Калининград 236039 Россия",54.68974,20.497635
305174,2020-12-15,Калининградская область,Светлогорский район,Отели,,,Отель Русь,"ул. Верещагина, д. 10, Светлогорск 238560 Россия",54.94666,20.165762
7645190,2020-12-15,Калининградская область,Калининград,Отели,,,КойкаГо,"ул. Богдана Хмельницкого, 33-37, Калининград 236039 Россия",54.69734,20.507158
300516,2020-12-15,Калининградская область,Калининград,Отели,,,Отель Дона,"Маршала Василевского площадь, 2, Калининград 236016 Россия",54.719624,20.524233
8685706,2020-12-15,Калининградская область,Зеленоградский район,Отели,,,Элиза Инн,"ул. Ткаченко, 4, Зеленоградск 238530 Россия",54.959457,20.47781
14136360,2020-12-15,Калининградская область,Зеленоградский район,Отели,,,"Хостел ""АРТ""","ул. Московская, д. 5, Зеленоградск 238530 Россия",54.95975,20.47664
2444910,2020-12-15,Калининградская область,Орловка,Отели,,,"Отель-замок ""Нессельбек""","Центральный переулок 7, Орловка 238324 Россия",54.793167,20.53376
10438406,2020-12-15,Калининградская область,Калининград,Отели,,,LaBelle,"Village Pregolsky 149, Калининград 236010 Россия",54.71969,20.50392
10718629,2020-12-15,Калининградская область,Калининград,Отели,,,Seestern Haus,"ul. 9 Aprelya 24, Apt. 33, Калининград 236016 Россия",54.71272,20.52312
3768297,2020-12-15,Калининградская область,Калининград,Рестораны,,,Ресторан при гостевом доме Параисо,"ул. Тургенева, д. 32а, Калининград 236008 Россия",54.73648,20.52225
6129938,2020-12-15,Калининградская область,Зеленоградский район,Рестораны,,,Сковородка,"Курортный проспект, 3, Зеленоградск Россия",54.961666,20.48152
3776821,2020-12-15,Калининградская область,Калининград,Рестораны,,,Наутилус,"Чекистов ул., 14-16, Калининград 236023 Россия",54.732155,20.48133
14024715,2020-12-15,Калининградская область,Калининград,Рестораны,,,Мамин Сибиряк,"ул. Озёрная, 1а, Калининград 236029 Россия",54.73591,20.50903
13327257,2020-12-15,Калининградская область,Зеленоградский район,Рестораны,,,Park House,"ул. Чкалова, д. 19 Пляж ""Сковородка"", Зеленоградск 238326 Россия",54.964638,20.489548
3770226,2020-12-15,Калининградская область,Калининград,Рестораны,,,Английский Паб Сэр Френсис Дрейк,"Советский пр-кт, 19a, Калининград 236022 Россия",54.725964,20.495426
8426482,2020-12-15,Калининградская область,Зеленоградский район,Рестораны,,,Кафе Веранда,"ул. Гагарина, 2в, Зеленоградск 238530 Россия",54.960407,20.470364
7776742,2020-12-15,Калининградская область,Советск,Рестораны,,,Кафе-пиццерия Чиполлоне,"ул. Победы, 40, Советск 238750 Россия",55.08176,21.900902
6129895,2020-12-15,Калининградская область,Калининград,Рестораны,,,Любимое,"Центральная пл., 1, Калининград 236019 Россия",54.725628,20.414534
8862756,2020-12-15,Калининградская область,Зеленоградский район,Рестораны,,Булочные,Konigsbacker,"ул. Тургенева, 1 Б, Зеленоградск 238530 Россия",54.958637,20.474037
8345048,2020-12-15,Калининградская область,Калининград,Рестораны,,,Браво Италия,"Правая Набережная, 9, Калининград 236010 Россия",54.706104,20.471922
21119772,2020-12-15,Калининградская область,Зеленоградский район,Рестораны,,,Телеграф,"Курортный проспект, 29, Зеленоградск 238326 Россия",54.95983,20.475489
7695198,2020-12-15,Калининградская область,Калининград,Рестораны,,Кафе,Сиеста,"ул. Ю. Гагарина, 2А, Калининград Россия",54.71402,20.53741
12636530,2020-12-15,Калининградская область,Калининград,Рестораны,,Кафе,Ресторан Чеснок,"ул. Горького, 162, Калининград 236001 Россия",54.744896,20.501896
2326370,2020-12-15,Калининградская область,Калининград,Рестораны,,Паб,Верфь,"Октябрьская, 4, Речной вокзал, Рыбная деревня Rechnoj vokzal, Rybnaja derevnja, Калининград 236006 Россия",54.704807,20.514462
15038542,2020-12-15,Калининградская область,Зеленоградский район,Рестораны,,"Быстрые перекусы,Фастфуд",#промрыба,"угол ул. Горького, Крымской и Гагарина, Зеленоградск 238530 Россия",54.96042,20.481497
6398329,2020-12-15,Калининградская область,Калининград,Рестораны,,,Чайковский,"ул. Чайковского, 43 The Tchaikovsky Restaurant at the Tchaikovsky Hotel, Калининград 236000 Россия",54.725895,20.483086
8627496,2020-12-15,Калининградская область,Калининград,Рестораны,,,Пеперончино,"Str. Elena Kovalchuk, 5-7, Калининград 236000 Россия",54.719913,20.473993
3767900,2020-12-15,Калининградская область,Калининград,Рестораны,,,Табаско,"пр. Победы д. 137, Калининград 236010 Россия",54.710163,20.443722
6129903,2020-12-15,Калининградская область,Светлогорский район,Рестораны,,,Новый Очаг,"Октябрьская, 19, Светлогорск Россия",54.944767,20.152435
12122522,2020-12-15,Калининградская область,Калининград,Рестораны,,Кафе,Браво Италия,"Ленинский проспект, 30 ТРЦ Плаза, 3 этаж, Калининград 236006 Россия",54.711063,20.50841
3768000,2020-12-15,Калининградская область,Калининград,Рестораны,,Бар,Баварский ресторан Zotler Bier,"Ленинский проспект, 3, Калининград 236006 Россия",54.71838,20.50182
632403,2020-12-15,Калининградская область,Калининград,Отели,,,Гостиница Мартон Палас,"пер. Большевистский, 3, Калининград 236039 Россия",54.696873,20.504814
6023913,2020-12-15,Калининградская область,Калининград,Рестораны,,"Бар,Паб","Бар ""Пират Хауз""","Эпроновская ул., 9/13, Калининград 236039 Россия",54.70121,20.513618
3754751,2020-12-15,Калининградская область,Калининград,Рестораны,,,Хофбург,"Октябрьская ул., 6A Kaiserhof Hotel, Калининград 236006 Россия",54.702915,20.515383
6743155,2020-12-15,Калининградская область,Калининград,Рестораны,,Паб,Корнер Паб,"Больничная, 21-29, Калининград 236006 Россия",54.71202,20.503908
8816563,2020-12-15,Калининградская область,Калининград,Рестораны,,,Табаско Европа,"Театральная 30, Калининград 236000 Россия",54.717735,20.500261
6743883,2020-12-15,Калининградская область,Калининград,Рестораны,,Бар,Британника,"ул. Карла Маркса 18, Калининград 236022 Россия",54.728443,20.481176
677304,2020-12-15,Калининградская область,Светлогорский район,Отели,,,Роял Фолк Резорт,"ул. Ленина, 1Б, Светлогорск 238560 Россия",54.943043,20.166033
13286043,2020-12-15,Калининградская область,Калининград,Отели,,,Европа отель и аппартаменты,"ул. Театральная 30, Калининград 236006 Россия",54.717495,20.500278
14412001,2020-12-15,Калининградская область,Светлогорский район,Отели,,,Мадам Эль,"Гагарина, 15, Светлогорск 238560 Россия",54.9412,20.158155
300491,2020-12-15,Калининградская область,Калининград,Отели,,,Параисо,"ул. Тургенева, д. 32а, Калининград 236008 Россия",54.73647,20.522196
6124713,2020-12-15,Калининградская область,Калининград,Отели,,,ЭРА СПА,"Калининградская ул., 35А поселок Большое Исаково, Калининград 238311 Россия",54.722763,20.598557
2696375,2020-12-15,Калининградская область,Калининград,Отели,,,Золотая Бухта,"ул. Богдана Хмельницкого, д. 53, Калининград 236039 Россия",54.69734,20.508486
1536328,2020-12-15,Калининградская область,Калининград,Отели,,,Гостиница Турист,"ул. А.Невского, д. 53, Калининград 236041 Россия",54.731754,20.530552
300415,2020-12-15,Калининградская область,Калининград,Отели,,,Альбертина,"ул. Демьяна Бедного, д. 13а, Калининград 236029 Россия",54.744377,20.513994
6217873,2020-12-15,Калининградская область,Калининград,Отели,,,"Гостиница ""Чайковский""","ул.Чайковского 43, Калининград 236000 Россия",54.72605,20.483059
1958628,2020-12-15,Калининградская область,Калининград,Отели,,,Гостиница Шкиперская,"ул. Октябрьская, 4А, Калининград 236006 Россия",54.704544,20.51481
13122373,2020-12-15,Калининградская область,Калининград,Отели,,,Crystal House Suite Hotel & SPA,"ул. Сергеева 4, Калининград 230040 Россия",54.715027,20.5159
14792431,2020-12-15,Калининградская область,Светлогорский район,Рестораны,,,Local,"ул.Гагарина 15, Светлогорск 238560 Россия",54.941338,20.15837
4751630,2020-12-15,Калининградская область,Калининград,Отели,,,Отель Ибис Калининград Центр,"Московский проспект, дом 52, Калининград 236029 Россия",54.70923,20.50681
3778396,2020-12-15,Калининградская область,Калининград,Рестораны,,,"Немецкий ресторан ""Тётка Фишер""","Шевченко ул., 11а, Калининград 236040 Россия",54.711536,20.510885
14178807,2020-12-15,Калининградская область,Калининград,Отели,,,Меркюр Калининград,"Озёрный проезд, 2, Калининград 236040 Россия",54.72137,20.516466
1845653,2020-12-15,Калининградская область,Калининград,Отели,,,Radisson Отель,"площадь Победы, 10, Калининград 236010 Россия",54.719845,20.504745
1200693,2020-12-15,Калининградская область,Калининград,Отели,,,Отель Кайзерхоф,"ул. Октябрьская, д. 6а, Калининград 236006 Россия",54.702972,20.515627
15242560,2020-12-15,Калининградская область,Калининград,Рестораны,,,Угли,"пр-т Мира, 19, Калининград 236022 Россия",54.719307,20.487656
740021,2020-12-15,Калининградская область,Светлогорский район,Рестораны,,,Дом рыбака,"Береговой пер., д. 1, Светлогорск 238560 Россия",54.945744,20.146732
2032104,2020-12-15,Калининградская область,Калининград,Рестораны,,,Фиш Клуб,"Октябрская ул.,  4а, Калининград 236039 Россия",54.70469,20.515022
3759408,2020-12-15,Калининградская область,Калининград,Рестораны,,Бар,ЛиBEERтИ,"Ленинский проспект, д. 11, Калининград 236006 Россия",54.717358,20.502483
6182444,2020-12-15,Калининградская область,Балтийск,Рестораны,,,Граф Монте Кристо,"Ленина проспект, 18а, Балтийск 238521 Россия",54.64609,19.899109
19909989,2020-12-15,Калининградская область,Калининград,Рестораны,,Бар,Шпрот,"Гвардейский пр.,  3, Калининград 236022 Россия",54.718967,20.49913
2326004,2020-12-15,Калининградская область,Калининград,Рестораны,,Бар,Ресторан-пивоварня Пивовар,"Александра Невского ул., 137б, Калининград 236008 Россия",54.74163,20.532026
15242088,2020-12-15,Калининградская область,Калининград,Рестораны,,,АСАДО,"Ленинский Проспект,  93 ул. Грига, 26, Калининград 236039 Россия",54.703922,20.506088
2326388,2020-12-15,Калининградская область,Калининград,Рестораны,,Кафе,Круассан-кафе,"Александра Невского ул., 24-30, Калининград 236016 Россия",54.726936,20.527872
3771298,2020-12-15,Калининградская область,Калининград,Рестораны,,Кафе,Круассан кафе,"Ленинский пр-кт, д. 67, Калининград 236006 Россия",54.712875,20.50756
13314007,2020-12-15,Калининградская область,Зеленоградский район,Рестораны,,,Кафе Брецель,"ул. Пушкина 4, Зеленоградск 238530 Россия",54.95908,20.47145
6983551,2020-12-15,Калининградская область,Калининград,Рестораны,,,Мадам Буше,"ул. Октябрьская, д. 4, Калининград 236005 Россия",54.705124,20.514591
6129806,2020-12-15,Калининградская область,Калининград,Рестораны,,Фастфуд,Поварешка,"Ленинский проспект, 6-8, Калининград 236006 Россия",54.71545,20.50359
2326261,2020-12-15,Калининградская область,Калининград,Рестораны,,,Редюит,"ул. Литовский вал, д. 27, Калининград 236016 Россия",54.712547,20.536875
12632539,2020-12-15,Калининградская область,Калининград,Рестораны,,Кафе,Патиссон Markt,"Пр. Мира 24/26 Площадь Победы, 4, Калининград 236022 Россия",54.720318,20.487583
6623559,2020-12-15,Калининградская область,Калининград,Рестораны,,,"Ресторан ""Мушкино""","ул. Сергеева, 14, Калининград 238300 Россия",54.719395,20.519522
10122122,2020-12-15,Калининградская область,Калининград,Рестораны,,,Кафе Ашман парк,"ул. Герцена, 1-1А, Калининград Россия",54.74739,20.525352
2326241,2020-12-15,Калининградская область,Калининград,Рестораны,,Бар,Британника,"Горького ул., 2, Калининград 236029 Россия",54.7216,20.507805
2326413,2020-12-15,Калининградская область,Калининград,Рестораны,,Бар,Брикас,"Театральная ул., 30 ТРЦ «Европа», 2 этаж, Калининград 236022 Россия",54.718487,20.501158
17529372,2020-12-15,Калининградская область,Калининград,Рестораны,,,Кавказ,"Площадь победы, 1, Калининград 236022 Россия",54.7191,20.50043
6129633,2020-12-15,Калининградская область,Калининград,Рестораны,,Бар,Kaiser Wurst,"Театральная, 30 площадь победы, Калининград 236022 Россия",54.71858,20.498713
4297607,2020-12-15,Калининградская область,Калининград,Рестораны,,,Пармезан,"Карла Маркса ул., 18, Калининград 236022 Россия",54.72836,20.480642
7205067,2020-12-15,Калининградская область,Зеленоградский район,Рестораны,,,Рыбный Двор,"ул. Победы, Рыбачий 238535 Россия",55.154892,20.851418
4501733,2020-12-15,Калининградская область,Калининград,Рестораны,,,Борщ и Сало,"Победы площадь, 10, Калининград 236010 Россия",54.71941,20.502935
11832482,2020-12-15,Калининградская область,Калининград,Рестораны,,,Штайндамм 99,"ул. Житомирская, 22, Калининград 236006 Россия",54.710625,20.506605
2400281,2020-12-15,Калининградская область,Калининград,Рестораны,,Бар,Ресторан Хмель,"пл.Победы 10, Калининград 236010 Россия",54.71969,20.502548
7182422,2020-12-15,Калининградская область,Балтийск,Достопримечательности,Достопримечательности и культурные объекты,"Памятники и статуи,Культурные объекты и достопримечательности",Памятник Петру I,"Морской бульвар, Балтийск Россия",54.64306,19.88201
6940748,2020-12-15,Калининградская область,Советск,Достопримечательности,Достопримечательности и культурные объекты,"Мосты,Культурные объекты и достопримечательности",Мост королевы Луизы,"Через реку Неман, Советск Россия",55.082905,21.904156
7158374,2020-12-15,Калининградская область,Пионерский,Достопримечательности,Достопримечательности и культурные объекты,Культурные объекты и достопримечательности,Пионерский променад,Пионерский Россия,54.954807,20.22697
6539281,2020-12-15,Калининградская область,Калининград,Достопримечательности,Достопримечательности и культурные объекты,Культурные объекты и достопримечательности,Рыбная деревня,"ул. Октябрьская, 8 Октябрьский Oстров, Калининград 236039 Россия",54.7022,20.51579
15290965,2020-12-15,Калининградская область,Калининград,Рестораны,,,Соль Gastrobar,"Космонавта Леонова, 55, Калининград 236023 Россия",54.73123,20.481068
12730075,2020-12-15,Калининградская область,Черняховск,Достопримечательности,Музеи,"Исторические музеи,Специализированные музеи",Музей истории,"ул. Крупской, 6, Черняховск 238150 Россия",54.63458,21.8144
16585175,2020-12-15,Калининградская область,Черняховск,Достопримечательности,Достопримечательности и культурные объекты,Памятники и статуи,Памятник Барклаю де Толли,"пл. Ленина ул. Барклая де Толли, Черняховск Россия",54.63693,21.81031
8134279,2020-12-15,Калининградская область,Балтийск,Достопримечательности,Достопримечательности и культурные объекты," ,Загадочные места,Больше,Архитектурные достопримечательности,Поля сражений,Военные базы и объекты,Культурные объекты и достопримечательности",Крепость Пиллау,"ул. Адмирала Кузнецова, Балтийск Россия",54.6406,19.89381
13144127,2020-12-15,Калининградская область,Калининградская область,Достопримечательности,Музеи,Научные музеи,Морской выставочный центр,"ул. Ленина, 11 Lenina St., 11., Светлогорск 238560 Россия",54.945503,20.15979
8680720,2020-12-15,Калининградская область,Калининград,Достопримечательности,Природа и парки,Водоемы,Верхнее озеро,Калининград Россия,54.728516,20.52195
6493867,2020-12-15,Калининградская область,Калининградская область,Достопримечательности,Достопримечательности и культурные объекты,Культурные объекты и достопримечательности,Храм преподобного Серафима Саровского,"Баха, 14, Светлогорск 238560 Россия",54.94282,20.1642
10004859,2020-12-15,Калининградская область,Балтийск,Достопримечательности,Достопримечательности и культурные объекты,"Древние руины, ,Исторические достопримечательности,Замки,Больше,Исторические места для прогулок,Военные базы и объекты",Форт Западный,"Морская набережная, Балтийск Россия",54.63535,19.88376
9708291,2020-12-15,Калининградская область,Калининград,Достопримечательности,Музеи,Специализированные музеи,Музей-квартира Альтес Хаус,"ул. Красная, 11 кв.1, Калининград 236022 Россия",54.722008,20.474495
6402713,2020-12-15,Калининградская область,Калининград,Достопримечательности,Зоопарки и океанариумы,Зоопарки,Калининградский зоопарк,"пр. Мира, 26, Калининград 236022 Россия",54.720806,20.47852
7202156,2020-12-15,Калининградская область,Калининградская область,Достопримечательности,Достопримечательности и культурные объекты,"Памятники и статуи,Культурные объекты и достопримечательности",Памятник зеленоградским котам,"пересечение Курортного проспекта и Пограничной улицы, Зеленоградск Россия",54.96185,20.48207
7892184,2020-12-15,Калининградская область,Калининградская область,Достопримечательности,Достопримечательности и культурные объекты,Памятники и статуи,Солнечные часы Зодиак,"Променад, Светлогорск Россия",54.946365,20.154572
9740818,2020-12-15,Калининградская область,Гусев,Рестораны,,,Кафе Аэлита,"Зои Космодемьянской, 2, Гусев 238050 Россия",54.59039,22.19896
6487606,2020-12-15,Калининградская область,Калининградская область,Достопримечательности,Достопримечательности и культурные объекты,"Смотровые площадки и башни,Культурные объекты и достопримечательности",Водонапорная башня,"ул.Октябрьская, 11, Светлогорск 238560 Россия",54.940735,20.157127
10451664,2020-12-15,Калининградская область,Зеленоградский район,Отели,,,Diana Guest House,"Ulitsa Pervomayskaya 19, Морское 238535 Россия",55.15553,20.85352
12843134,2020-12-15,Калининградская область,Калининград,Отели,,,Borkenhof Inn,"Kostromskaya ulitsa 6, Калининград 236038 Россия",54.72927,20.55063
16835930,2020-12-15,Калининградская область,Светлогорский район,Отели,,,Apart-Hotel Hvoya,"Maysky Proezd 11a, Светлогорск 238560 Россия",54.93746,20.1429
16802803,2020-12-15,Калининградская область,Калининград,Отели,,,Apartment On Epronovskaya 1,"Epronovskaya 1, Калининград 236039 Россия",54.7,20.5132
12678356,2020-12-15,Калининградская область,Пионерский,Отели,,,Condo Hotel Neukuhren,"Kaliningradskoe shosse 10 A, Пионерский 238590 Россия",54.94543,20.22285
2552230,2020-12-15,Калининградская область,Зеленоградский район,Отели,,,Отель Гранд Сокольники,"пос. Сокольники, Зеленоградск 236000 Россия",54.93416,20.417618
2318774,2020-12-15,Калининградская область,Калининград,Отели,,,Las Palmas,"Калининградское шоссе, д. 50, Калининград 236020 Россия",54.65992,20.39766
15295611,2020-12-15,Калининградская область,Калининград,Отели,,,Homestay at Gagarina 13,"13 Ulitsa Yuriya Gagarina, Калининград 236038 Россия",54.71709,20.54023
6277416,2020-12-15,Калининградская область,Балтийск,Отели,,,Балтийский Бриз,"ул. Дачная, 25 Мечниково, Балтийск 238520 Россия",54.68198,19.91976
12476120,2020-12-15,Калининградская область,Светлогорский район,Отели,,,Old City Boutique Apartments,"ул. Ленина, 15, Светлогорск 238560 Россия",54.944344,20.155996
15804087,2020-12-15,Калининградская область,Калининград,Отели,,,V Rybnoi Derevne,"Ul. Oktyabr'skaya 37, Калининград 236006 Россия",54.70298,20.51681
13833797,2020-12-15,Калининградская область,Изобильное,Отели,,,Дейма-Парк,"ул. Речная, д.1, Изобильное 238640 Россия",54.780838,21.18637
10167276,2020-12-15,Калининградская область,Зеленоградский район,Отели,,,Villa Prestige,"Ulitsa Gertsena 31, Зеленоградск 238530 Россия",54.95701,20.48078
6516634,2020-12-15,Калининградская область,Светлогорский район,Отели,,,Тройка,"Калининградский проспект, 77Б, Светлогорск 238560 Россия",54.92679,20.17269
15837233,2020-12-15,Калининградская область,Янтарный,Отели,,,Apart Hotel Friday,"17 Ulitsa Ozornaya, Янтарный 238580 Россия",54.88099,19.93955
12717206,2020-12-15,Калининградская область,Пионерский,Отели,,,Izbushka U Morya,"S/M Yagodka 116, Пионерский 238590 Россия",54.949856,20.250013
10446052,2020-12-15,Калининградская область,Светлогорский район,Отели,,,Amber House,"ulitsa Lenina 14, Светлогорск 238560 Россия",54.94371,20.16
13956087,2020-12-15,Калининградская область,Калининград,Отели,,,UnitedColorsHostel,"Некрасова,  21, Калининград 236008 Россия",54.73429,20.52977
15835872,2020-12-15,Калининградская область,Калининград,Отели,,,Apartment On Pereulok Maly,"3 переулок Малый, Калининград 236039 Россия",54.70296,20.51183
8673714,2020-12-15,Калининградская область,Зеленоградский район,Отели,,,"Гостевой дом ""Остермаер""","ул. Гагарина 2, Рыбачий 238535 Россия",55.15288,20.85584
13389458,2020-12-15,Калининградская область,Светлогорский район,Отели,,,"Гостевой дом ""Корвет""","Октябрьская ул., дом 34, Светлогорск 238563 Россия",54.940735,20.157127
7044160,2020-12-15,Калининградская область,Калининград,Отели,,,Обертайх Люкс,"ul. Gogolja, 17, Калининград 236008 Россия",54.73399,20.51734
2263479,2020-12-15,Калининградская область,Калининград,Отели,,,Вилла Татьяна,"ул. Сурикова, д. 17а, Калининград 236038 Россия",54.73689,20.56196
20170075,2020-12-15,Калининградская область,Калининград,Отели,,,Friday Center,"пр. Победы, 189 Б, Калининград 236010 Россия",54.709938,20.433916
9582556,2020-12-15,Калининградская область,Советск,Отели,,,Гостиница Экспресс,"ул. Первомайская, 8з, Советск 238750 Россия",55.08452,21.88179
12239672,2020-12-15,Калининградская область,Калининград,Отели,,,Guest House Marian,"Tupikovaya 14, Калининград 236022 Россия",54.75095,20.443926
2706558,2020-12-15,Калининградская область,Гусев,Отели,,,Глория Отель,"Победы улица, д. 5, Гусев 238050 Россия",54.59005,22.1991
6456416,2020-12-15,Калининградская область,Калининград,Отели,,,Хостел John Lennon,"ул. Тургенева, 25, Калининград 236008 Россия",54.73239,20.51574
19925972,2020-12-15,Калининградская область,Калининград,Отели,,,Apart39 на Гагарина 2А,"ул. Гагарина, 2А, Калининград 236038 Россия",54.71677,20.54188
13510952,2020-12-15,Калининградская область,Мамоново,Отели,,,Gostinitsa U Mosta,"21 Tamozhnyaya Ulitsa, Мамоново 238450 Россия",54.46008,19.93554
17667714,2020-12-15,Калининградская область,Зеленоградский район,Отели,,,On Board Apartment,"Gagarina 69 Kv 1, Зеленоградск 238530 Россия",54.9549,20.45676
20236926,2020-12-15,Калининградская область,Отрадное,Отели,,,Apartaments Dino House,"Ul. Tokareva 3A Dom, Отрадное 238561 Россия",54.94057,20.115503
6849631,2020-12-15,Калининградская область,Калининград,Отели,,,Мини-отель «Эконом Класс»,"Rassvetnaya Ulitsa 6, Калининград 236001 Россия",54.75056,20.49919
5993265,2020-12-15,Калининградская область,Светлый,Отели,,,Вилла-Н,"ул. Рыбацкая, д.6а, Светлый Россия",54.66215,20.11126
6632580,2020-12-15,Калининградская область,Калининград,Отели,,,Сударь,"ул. Физкультурная, 22, Калининград 236001 Россия",54.71126,20.5438
12436642,2020-12-15,Калининградская область,п. Заозерное,Отели,,,Guest House Seeterra,"Kooperativ Soyuz 48, п. Заозерное 297493 Россия",54.35848,21.83316
9799412,2020-12-15,Калининградская область,Балтийск,Отели,,,Guest House Strekoza,"Litke 10a, Балтийск 238520 Россия",54.65311,19.90398
10761621,2020-12-15,Калининградская область,п. Заозерное,Отели,,,Hotel Royal Beach Club,"Soyuz 13, п. Заозерное 97493 Россия",54.9431,20.16611
2704073,2020-12-15,Калининградская область,Черняховск,Отели,,,Кронверк,"Садовая улица, д. 21А, Черняховск 238151 Россия",54.63567,21.80712
6219384,2020-12-15,Калининградская область,Светлогорский район,Отели,,,"Гостиница ""Старый дуб""","Сибирский пер., 3, Светлогорск 238561 Россия",54.94249,20.11859
10915664,2020-12-15,Калининградская область,Зеленоградский район,Отели,,,Гостевой дом R&N,"ул. Герцена, 21А, Зеленоградск Россия",54.95942,20.48264
12954759,2020-12-15,Калининградская область,Калининград,Отели,,,Tatyana Turgeneva Hotel,"Ulitsa Turgeneva 12, Калининград 236008 Россия",54.73344,20.51736
6465524,2020-12-15,Калининградская область,Черняховск,Отели,,,Гостиница Агата,"ул. Ленинградская, д. 3, Черняховск 238154 Россия",54.6424,21.81297
12398212,2020-12-15,Калининградская область,Калининград,Отели,,,Rauschen Court,"ul. Ermaka, 7, Калининград 236022 Россия",54.7218,20.47834
6741786,2020-12-15,Калининградская область,Зеленоградский район,Отели,,,Топаз,"Ленина, 36, Зеленоградск 238530 Россия",54.96002,20.47427
6632563,2020-12-15,Калининградская область,Светлый,Отели,,,Алёна,"ул. Строительная, 15а, Светлый 238340 Россия",54.66142,20.10579
2695421,2020-12-15,Калининградская область,Калининград,Отели,,,Калина,"Аллея Смелых, д. 145, Калининград 236011 Россия",54.69373,20.52282
6922301,2020-12-15,Калининградская область,Славский район,Отели,,,Гостевой дом Лесная поляна,"Сосняки, 13, Сосняки 238602 Россия",55.07903,21.86531
6396290,2020-12-15,Калининградская область,Балтийск,Отели,,,Янтерра,"Северный мол 5, Балтийск 238520 Россия",54.64517,19.88118
2704822,2020-12-15,Калининградская область,Озёрск,Отели,,,Озерск,"Московская улица, д. 1, Озёрск 238120 Россия",54.40941,22.01655
1489897,2020-12-15,Калининградская область,Черняховск,Отели,,,Гостиница Кочар,"ул. Ленина, д. 9, Черняховск 238150 Россия",54.63733,21.81121
3411588,2020-12-15,Калининградская область,Вершково,Отели,,,"Гостиница ""Варшкен""","п. Вершково, д. 1, Вершково 238580 Россия",54.85683,19.97209
4415060,2020-12-15,Калининградская область,Калининград,Отели,,,"Хостел ""День и ночь""","Космонавта Леонова, 67-1, Калининград 236034 Россия",54.72118,20.48239
6741017,2020-12-15,Калининградская область,Светлогорский район,Отели,,,Аист,"Балтийский проспект, 2а ст17, Приморье Россия",54.94231,20.04134
10404672,2020-12-15,Калининградская область,Калининград,Отели,,,Simple,"ул. Горького, 162, Калининград Россия",54.745502,20.501925
300513,2020-12-15,Калининградская область,Калининград,Отели,,,Гостиница Южная,"ул. Дзержинского, д. 166, Калининград 236004 Россия",54.67242,20.54278
653277,2020-12-15,Калининградская область,Калининград,Отели,,,Гостевой дом RentKaliningrad,"ул. Чернышевского, д. 78, Калининград 236000 Россия",54.72504,20.46173
10352347,2020-12-15,Калининградская область,Калининград,Отели,,,Hotel Golden Night,"Yaltinskaya ulitsa 59, Калининград 236006 Россия",54.70627,20.54967
10757107,2020-12-15,Калининградская область,Калининград,Отели,,,Hotel Slon,"Осенняя 19 236023, Калининград 236023 Россия",54.738068,20.461056
3387068,2020-12-15,Калининградская область,Янтарный,Отели,,,"Гостиница ""Беккер""","ул. Советская, д. 72, Янтарный 238580 Россия",54.86582,19.937983
6855071,2020-12-15,Калининградская область,Калининград,Отели,,,Статус,"ул. Луговая, 9, Калининград 236029 Россия",54.74328,20.51134
15612992,2020-12-15,Калининградская область,Краснополье,Отели,,,Целинбург,"Крайняя 3А, Краснополье 238300 Россия",54.868618,20.633066
2602877,2020-12-15,Калининградская область,Светлогорский район,Отели,,,Гостевой дом Бриз,"ул. Лесная, д. 5, Светлогорск 238561 Россия",54.93987,20.15479
6516664,2020-12-15,Калининградская область,Зеленоградский район,Отели,,,Чайка,"Крымская, 5а/1, Зеленоградск 238530 Россия",54.95969,20.47268
8646162,2020-12-15,Калининградская область,Зеленоградский район,Отели,,,Usadba Tanaevskoy,"Tsentralnaya Ulitsa 14, Лесной 238534 Россия",55.010742,20.615908
8296281,2020-12-15,Калининградская область,Калининград,Отели,,,Агора,"Mосковский пр., 175, Калининград 236006 Россия",54.71081,20.49246
10432489,2020-12-15,Калининградская область,Янтарный,Отели,,,Guest House u Okhotnika,"Балтиыскиы переулок 2А, Янтарный Россия",54.71149,20.43445
4887759,2020-12-15,Калининградская область,Ладушкин,Отели,,,"Дом отдыха ""Лебединое""","п. Береговое, Ладушкин Россия",54.58131,20.14261
2697232,2020-12-15,Калининградская область,Советск,Отели,,,Тильзитский двор гостиница,"Искры улица, д. 15, Советск 238750 Россия",55.07751,21.88567
12366756,2020-12-15,Калининградская область,Пугачёво,Отели,,,Romintskiy Dvor,"Ulitsa Ozernaya 17, Пугачёво 238024 Россия",54.73741,20.51066
6864312,2020-12-15,Калининградская область,Светлогорский район,Отели,,,Аквамания,"ул. Нахимова, д. 1 поселок Отрадное, Светлогорск 238561 Россия",54.942818,20.1218
3671655,2020-12-15,Калининградская область,Багратионовск,Отели,,,Гостиница Багратионовск,"Иркутско-Пинской Дивизии улица, д. 2, Багратионовск 238420 Россия",54.38627,20.64147
7187110,2020-12-15,Калининградская область,Краснознаменский район,Отели,,,Подснежник,"ул. Краснознаменная, д. 12, Краснознаменск 143090 Россия",54.862038,22.288229
300485,2020-12-15,Калининградская область,Калининград,Отели,,,Гостиница КенигАвто,"Московский пр., д. 184, Калининград 236001 Россия",54.709137,20.55069
10771523,2020-12-15,Калининградская область,Неман,Отели,,,Hotel Neman,"Sovetskaya 1, Неман 238710 Россия",55.03831,22.02799
3213652,2020-12-15,Калининградская область,Светлогорский район,Отели,,,Отель Приморье,"Балтийский проспект, 12Б, Приморье 238550 Россия",54.94231,20.04134
2703968,2020-12-15,Калининградская область,Неман,Отели,,,Неман Дом Дружбы,"ул. Первомайская, 9, Неман 238710 Россия",55.029636,22.020218
10541547,2020-12-15,Калининградская область,Зеленоградский район,Отели,,,Guest House LIK,"ul. Zheleznodorozhnaya 5, Kvartira 3, Зеленоградск 238530 Россия",54.95422,20.47128
15193303,2020-12-15,Калининградская область,Отели Калининградской области,Отели,,,Tatiana Dom,"1st Bolshaya Okruzhnaya, House 5, 236023 Россия",54.76117,20.45156
10030759,2020-12-15,Калининградская область,Зеленово,Отели,,,Guest House Koziy Dvor,"Lipovaya ulitsa 13, Зеленово 238642 Россия",55.06564,21.90988
15584630,2020-12-15,Калининградская область,B&B/мини-отели/гостиницы Калининградской области,Отели,,,"Turbaza, Baza Otdykha","Ul. Rybackaja Dom14, 236038 Россия",55.01095,20.6133
16736649,2020-12-15,Калининградская область,Отели Калининградской области,Отели,,,House On 70 Let Oktyabrya 55a,"Ulitsa 70 Let Oktyabrya 55a, 648591 Россия",54.66136,20.64042
7082452,2020-12-15,Калининградская область,п. Заозерное,Отели,,,Дельфин,"ул. Аллея Дружбы, 5, п. Заозерное 97443 Россия",54.69238,20.52417
15028297,2020-12-15,Калининградская область,Калининград,Отели,,,Хаберберг,"Проспект Калинина, 2, Калининград 236039 Россия",54.76705,20.45403
6537022,2020-12-15,Калининградская область,Калининград,Отели,,,Апарт-отель №1,"пр. Мира, 159А, Калининград 236000 Россия",54.721016,20.441677
13119266,2020-12-15,Калининградская область,Калининград,Отели,,,Hotel HK,"275A Moskovskiy Prospekt, Калининград 236001 Россия",54.707363,20.58901
6615475,2020-12-15,Калининградская область,Калининград,Отели,,,Граф Орлов,"ул. Юрия Гагарина, 92, Калининград 236038 Россия",54.71672,20.54187
15751640,2020-12-15,Калининградская область,Зеленоградский район,Отели,,,У Капитана,"Володарского,  28a, Зеленоградск 238530 Россия",54.96154,20.48022
16830424,2020-12-15,Калининградская область,Грачевка,Отели,,,Скворечник в Грачевке,"Школьная, 10, Грачевка 238554 Россия",54.90175,20.134443
15631796,2020-12-15,Калининградская область,Светлогорский район,Отели,,,Apartamenty HomeRauschen,"Tsentral'naya Ploshchad', Светлогорск 238560 Россия",54.943832,20.156357
13146596,2020-12-15,Калининградская область,Калининград,Отели,,,У Кота,"20Г Ulitsa Tsirkovaya Kolesnaya Street 19, Section 2-3, Калининград 236010 Россия",54.71816,20.4342
10429355,2020-12-15,Калининградская область,Синявино,Отели,,,Eco-camping Valterra,"Ulitsa Tsentralnaya 22, Синявино 238581 Россия",54.893425,19.947388
2695973,2020-12-15,Калининградская область,Зеленоградский район,Отели,,,Досуг гостевой дом,"Дачная улица, д. 17, Морское 238530 Россия",54.71145,20.54539
5029283,2020-12-15,Калининградская область,Полесск,Отели,,,"гостевой дом ""Дельта""","Переулок Банный, 2, Полесск 238630 Россия",54.86017,21.10182
12436633,2020-12-15,Калининградская область,п. Заозерное,Отели,,,Mini Hotel Maiachok,"ulitsa Tienistaia 1A, п. Заозерное 97493 Россия",54.35848,21.83316
15555516,2020-12-15,Калининградская область,Светлый,Отели,,,Hostel Baltiysky Les,"ul. Zheleznodorozhnaya, 1 A, Светлый 238340 Россия",54.6878,20.111584
20214770,2020-12-15,Калининградская область,п. Заозерное,Отели,,,"Гостевой дом ""На Садовой""","Садовая, 30/31Б, п. Заозерное 297493 Россия",45.161983,33.25545
17367026,2020-12-15,Калининградская область,Вишневое,Отели,,,U Lukomorya,"Ulitsa Raduzhnaya 17, Вишневое 238530 Россия",54.945545,20.46014
8443840,2020-12-15,Калининградская область,Озёрск,Отели,,,Guesthouse Krasnyy Khutor,"Village Konevo, 4b, Озёрск 238120 Россия",54.376083,21.956638
2704732,2020-12-15,Калининградская область,Зеленоградский район,Отели,,,Королева луиза,"Московская улица, д. 50, Зеленоградск 238530 Россия",54.95924,20.47601
17607404,2020-12-15,Калининградская область,Калининград,Отели,,,Veranda House,"Moskovskiy Pr-t ul. Novo-Ozernaya d. 33A, Калининград 236003 Россия",54.71037,20.50522
