с0_id,с10_date,с1_region,с2_city,с3_category,с4_subcategory,с5_tags,с6_name,с7_adress,с8_latitude,с9_longitude
4892007,2020-12-15,Липецкая область,Липецк,Достопримечательности,Зоопарки и океанариумы,Зоопарки,Липецкий зоопарк,"ул. К. Маркса, 9, Липецк 398059 Россия",52.60429,39.60308
6867849,2020-12-15,Липецкая область,Липецк,Достопримечательности,Достопримечательности и культурные объекты,"Памятники и статуи,Культурные объекты и достопримечательности",Памятник Народовольцам,"Нижний Парк, Липецк Россия",52.60677,39.6086
6680459,2020-12-15,Липецкая область,Елец,Достопримечательности,Музеи,Специализированные музеи,Дом-Музей Елецкого Кружева,"ул. Октябрьская, 108, Елец Россия",52.60291,38.49753
14009171,2020-12-15,Липецкая область,Данков,Достопримечательности,Достопримечательности и культурные объекты,Фермы,Сыр-Борев Масловка,"деревня Масловка, Данков 399842 Россия",53.383442,39.140583
8791709,2020-12-15,Липецкая область,Елец,Достопримечательности,Достопримечательности и культурные объекты,Архитектурные достопримечательности,Башня городских часов,"ул. Советская, Елец 399740 Россия",52.62293,38.49952
13079224,2020-12-15,Липецкая область,Задонск,Достопримечательности,Достопримечательности и культурные объекты,Памятники и статуи,Памятник Матери Марии Фроловой,"парк Победы, Задонск 399200 Россия",52.59634,39.52241
6685918,2020-12-15,Липецкая область,Донское,Достопримечательности,Природа и парки,Природные и заповедные зоны,Заповедник Галичья Гора,Донское Россия,52.5916,38.9216
6494318,2020-12-15,Липецкая область,Липецк,Достопримечательности,Достопримечательности и культурные объекты,Церкви и соборы,Преображенский храм,"Папина, 1, Липецк 398024 Россия",52.59452,39.55399
12583121,2020-12-15,Липецкая область,Лебедянь,Достопримечательности,Достопримечательности и культурные объекты,Церкви и соборы,Ново-Казанский собор,"ул. Советская, Лебедянь Россия",53.01704,39.12981
12950504,2020-12-15,Липецкая область,Липецк,Достопримечательности,Природа и парки,Парки,Верхний парк,"Ленина 23, Липецк 398050 Россия",52.60973,39.60182
6440031,2020-12-15,Липецкая область,Липецк,Достопримечательности,Природа и парки,Парки,Нижний парк,"Петровский проезд, д. 2, Липецк 398050 Россия",52.60636,39.6011
6189207,2020-12-15,Липецкая область,Липецк,Рестораны,,,GM cafe,"Первомайская, 35, Липецк 398059 Россия",52.60328,39.59771
6491848,2020-12-15,Липецкая область,Липецк,Достопримечательности,Достопримечательности и культурные объекты,Культурные объекты и достопримечательности,Часовня Первоверховных Апостолов Петра и Павла,"Карла Маркса, 5а, Липецк 398059 Россия",52.60455,39.59868
2260576,2020-12-15,Липецкая область,Липецк,Отели,,,Стиль,"ул. Нижняя Логовая, д.7 стр.1, Липецк 398050 Россия",52.6108,39.59248
10055260,2020-12-15,Липецкая область,Лебедянь,Отели,,,Мини-отель НАШ ЛЕБЕДЯНЬ,"ул. Почтовая, д.31, Лебедянь 399610 Россия",53.009098,39.129417
2335379,2020-12-15,Липецкая область,Липецк,Отели,,,Бизнес Отель,"ул. Новокарьерная, д. 18, Липецк 398002 Россия",52.62013,39.60632
2694122,2020-12-15,Липецкая область,Липецк,Отели,,,Отель Стрелецкая слобода,"Трудовая улица, д. 25, Липецк 398050 Россия",52.60792,39.58984
3595793,2020-12-15,Липецкая область,Задонский район,Отели,,,Гостевые дома Мальвы,"ул. Центральная, д. 43, Донское Первое 398001 Россия",52.78152,38.96591
3158378,2020-12-15,Липецкая область,Липецк,Отели,,,Гостиница Липовская,"ул. Липовская, д.6, Липецк 398002 Россия",52.6109,39.588825
6959477,2020-12-15,Липецкая область,Липецк,Отели,,,Хостел Пенаты,"ул. Папина, д. 31Б, Липецк 398024 Россия",52.591,39.550865
8556883,2020-12-15,Липецкая область,Скорняково,Отели,,,Скорняково-Архангельское,"ул. Муравьева, д.23, Скорняково 399231 Россия",52.682613,38.914806
7825937,2020-12-15,Липецкая область,Елец,Отели,,,"Отель ""Советская 49""","улица Советская, 49, Елец 399770 Россия",52.618523,38.497543
8154178,2020-12-15,Липецкая область,Елец,Отели,,,Лада,"ул. Советская 67, Елец 399770 Россия",52.620453,38.498264
14160902,2020-12-15,Липецкая область,Становлянский район,Отели,,,Qekik Boutique Kazdaglari,"Arikli Koyu No: 85, Казанский 17100 Россия",39.552017,26.530348
19789966,2020-12-15,Липецкая область,Задонск,Отели,,,мини отель Задонский,"Ulitsa Lenina, 17, Задонск 399200 Россия",52.389984,38.91826
13373718,2020-12-15,Липецкая область,Липецк,Отели,,,BISHOTEL,"ул. Студёновская д. 123, Липецк 398007 Россия",52.626747,39.64308
7606786,2020-12-15,Липецкая область,Нижнее Казачье,Отели,,,Теплый Хутор,"ул. Сельская,  89а Zadonsk, v.Nyznee Kazachee, Нижнее Казачье 399220 Россия",52.365692,38.805
13350712,2020-12-15,Липецкая область,Долгоруково,Отели,,,ГК Долгоруковский,"Советская, 12, Долгоруково 399510 Россия",52.32605,38.35993
21347373,2020-12-15,Липецкая область,Данков,Отели,,,Ogni Mini Hotel,"Ulitsa Mira 11/1, Данков 399850 Россия",53.247757,39.15253
8671023,2020-12-15,Липецкая область,Чаплыгин,Отели,,,Мини-отель НАШ Чаплыгин,"ул. Советская, 39, Чаплыгин 399900 Россия",53.23988,39.968067
20810850,2020-12-15,Липецкая область,Липецк,Отели,,,Отель City Липецк,"Салтыкова-Щедрина, 1Б, Липецк 398020 Россия",52.60791,39.600967
10320558,2020-12-15,Липецкая область,Елец,Отели,,,"Гостиница ""Весна""","ул. Генерала Костенко, 67Д, Елец 399770 Россия",52.60113,38.47833
2693147,2020-12-15,Липецкая область,Липецк,Отели,,,Отель Губернская,"Кузнечная улица, д. 8, Липецк 398050 Россия",52.60751,39.59685
7721358,2020-12-15,Липецкая область,Чаплыгин,Отели,,,Базилик Чаплыгин,"Ulitsa Sverdlova 9, Чаплыгин 399900 Россия",53.23868,39.97184
19508428,2020-12-15,Липецкая область,Елец,Отели,,,Винтаж,"Советская, 76, Елец 399770 Россия",52.61189,38.49575
2696205,2020-12-15,Липецкая область,Липецк,Отели,,,Гостиница Университетская,"ул. Краснозаводская, д. 2 ж, Липецк 398006 Россия",52.54508,39.57695
13295232,2020-12-15,Липецкая область,Долгоруково,Отели,,,"Гостиничный комплекс ""Долгоруковский""","Советская, 12, Долгоруково 399510 Россия",52.32451,38.35656
6741842,2020-12-15,Липецкая область,Липецк,Отели,,,Усадьба Скорнякова,"Советская, 7, Липецк 398001 Россия",52.65679,39.72761
1469253,2020-12-15,Липецкая область,Липецк,Отели,,,Гостиница Жемчуг,"ул. Тельмана, д. 3А, Липецк 398002 Россия",52.618946,39.595867
8018187,2020-12-15,Липецкая область,Липецк,Отели,,,Festa,"ул. 9 Мая, дом 22А, Липецк 398600 Россия",52.567432,39.610294
11727430,2020-12-15,Липецкая область,Елец,Отели,,,Гранд Елец,"ул. Маяковского, 5, Елец 399770 Россия",52.62532,38.5046
10687528,2020-12-15,Липецкая область,Задонск,Отели,,,Гостиница Задонск,"ул. Комунны д.13, Задонск 399200 Россия",52.393044,38.91977
12711162,2020-12-15,Липецкая область,Задонск,Отели,,,Гостиница Ленина 28,"ул. Ленина, 28, Задонск 399200 Россия",52.38999,38.91827
6396335,2020-12-15,Липецкая область,Усмань,Отели,,,Причалъ,"ул. В. Вельяминова, 29, Усмань 399373 Россия",52.04342,39.72516
12155283,2020-12-15,Липецкая область,Горицы,Отели,,,Park Hotel Full House,Горицы 399171 Россия,52.769077,39.759823
5498683,2020-12-15,Липецкая область,Липецк,Отели,,,Бригантина,"Matyrskoye Vodokhranilishhe, K1, Липецк Россия",52.56411,39.76992
6663042,2020-12-15,Липецкая область,Липецк,Отели,,,Лебедь,"Лебедянское шоссе, 2, Липецк 398037 Россия",52.62896,39.56593
13961056,2020-12-15,Липецкая область,Елец,Отели,,,мини-отель НАШ,"3 Ulitsa Mira, Елец 399772 Россия",52.60881,38.49712
17521192,2020-12-15,Липецкая область,Задонск,Отели,,,Don-416 Motel,"Moskovskaya 23, Задонск 399241 Россия",52.31571,39.03424
7248250,2020-12-15,Липецкая область,с. Казинкa,Отели,,,Ресторанно-гостиничный комплекс Чернышевой,"Selo Kazinka ul. Oktyabrskaya 23, с. Казинкa 399071 Россия",52.52411,39.822033
3462179,2020-12-15,Липецкая область,Липецк,Отели,,,Марафон Отель-Клуб,"улица Нестерова, д. 8, лит. А, Липецк 398016 Россия",52.620136,39.579887
8105484,2020-12-15,Липецкая область,Липецк,Отели,,,Берега,"Поперечный пр-д, д. 7, Липецк 398024 Россия",52.619854,39.535664
8042108,2020-12-15,Липецкая область,Липецк,Отели,,,Центр,"ул. Саперная, 1, Липецк 398050 Россия",52.60951,39.59568
6852129,2020-12-15,Липецкая область,Липецк,Отели,,,Эммили,"ул. Тельмана, д. 7, Липецк 398002 Россия",52.61854,39.60103
6516781,2020-12-15,Липецкая область,Липецк,Отели,,,Прометей,"Прокатная, 1а, Липецк 398005 Россия",52.57827,39.62642
6516874,2020-12-15,Липецкая область,Липецк,Отели,,,Сухоборье,"Прокатная, 1а, Липецк 398005 Россия",52.57827,39.62642
11881703,2020-12-15,Липецкая область,Липецк,Отели,,,Motel Chaglayan,"Universalnyy Proyezd, 2a, Липецк 398032 Россия",52.61812,39.54197
13238881,2020-12-15,Липецкая область,Становлянский район,Отели,,,Deodar Dream Resort,"Vikasnager - Chakrata Road Koruwa Chakrata, Dehra Dun, Near and Below Buransh Hotel, Казанский 248196 Россия",30.663925,77.862015
3461999,2020-12-15,Липецкая область,Лебедянь,Отели,,,НАШ Сафари,"Карла Маркса ул., 50, Лебедянь 399610 Россия",53.00844,39.14381
12624014,2020-12-15,Липецкая область,Задонск,Отели,,,Mini Hotel Grand on Komuny 20,"Komuny 20, Задонск 399201 Россия",52.39227,38.9224
8680377,2020-12-15,Липецкая область,Липецк,Отели,,,Гостиница Уют,"Советская, 42, Липецк 398001 Россия",52.65679,39.72761
8781896,2020-12-15,Липецкая область,Становлянский район,Отели,,,White Mountain Inn B&B,"KM 6 Atlin Road, Казанский Y1A 7A1 Россия",52.979324,38.036957
10795795,2020-12-15,Липецкая область,Конь-Колодезь,Отели,,,Самолет,"460 км. автотрассы М-4, Конь-Колодезь 399281 Россия",53.24531,39.13954
2706267,2020-12-15,Липецкая область,Липецк,Отели,,,"Гостиница ""Турист""","Петра Великого площадь, 1, Липецк 398001 Россия",52.60219,39.60593
6687025,2020-12-15,Липецкая область,Липецк,Отели,,,Славянский,"Воронежское шоссе, 30 с. Сырское, Липецк 398533 Россия",52.57233,39.52237
3461668,2020-12-15,Липецкая область,Стегаловка,Отели,,,Усадьба Ведрова,Стегаловка Россия,52.40919,38.31628
12811291,2020-12-15,Липецкая область,Ильино,Отели,,,Hotel Zelenaya Dolina,"Vvedenka, Ильино 398000 Россия",52.60226,39.60148
7381132,2020-12-15,Липецкая область,Ильино,Отели,,,Зеленая долина,Ильино 398059 Россия,52.721336,39.664818
7646682,2020-12-15,Липецкая область,с. Подгорное,Отели,,,"Гостевой дом ""Дар""","Podgornoe Dachny Poselok 1A, с. Подгорное 394075 Россия",52.54383,39.51284
17607521,2020-12-15,Липецкая область,Нелядино,Отели,,,FamilyGlamp Kulikovo Pole,"Donskaya Ulitsa 3, Нелядино 399814 Россия",53.56182,39.01172
21246832,2020-12-15,Липецкая область,Казаки,Отели,,,Tourist Base Kazaki,"Vladimirskaya, 1, Казаки 399747 Россия",52.652798,38.18893
12534919,2020-12-15,Липецкая область,с. Подгорное,Отели,,,Guest House on Planetnaya,"12 ulitsa Planetnaya, с. Подгорное 394044 Россия",52.54383,39.51284
20973268,2020-12-15,Липецкая область,Bol'shoye Panarino,Отели,,,мотель дон 424км,Bol'shoye Panarino Россия,52.6122,39.59812
14760453,2020-12-15,Липецкая область,Грязи,Отели,,,Gryazi Hotel,"ул. Правды, 28, Грязи 399050 Россия",52.49121,39.95022
12420628,2020-12-15,Липецкая область,Бочиновка,Отели,,,Гостевои дом Верста,"Tsentralnaya 53a, Бочиновка 399344 Россия",52.076633,39.75947
6741866,2020-12-15,Липецкая область,Липецк,Отели,,,Форест Парк,"Урочище Уткинский отрез 1116 км трассы М4 Дон, Липецк 398001 Россия",52.604267,39.577908
5021901,2020-12-15,Липецкая область,Задонский район,Отели,,,Чайка,"Урочище Скит, 398050 Россия",52.475002,38.972626
7368350,2020-12-15,Липецкая область,Кузьминские Отвержки,Отели,,,Полёт,"ул. Аэропорт, д. 3, Кузьминские Отвержки 398037 Россия",52.69574,39.47036
21345602,2020-12-15,Липецкая область,Задонский район,Отели,,,Форест Парк,"село Верхнее Казачье, ул. Сибирская дом 2A, Уткино 398200 Россия",52.363464,38.92139
17387794,2020-12-15,Липецкая область,Задонский район,Отели,,,Золотая рыбка,"Ул. Новая, 1, Алексеевка 399206 Россия",52.38376,38.77914
14863277,2020-12-15,Липецкая область,Липецк,Отели,,,Pro100 Hostel,"ul. Sovetskaya, 75, Липецк 398001 Россия",52.65679,39.72761
6516714,2020-12-15,Липецкая область,Липецк,Отели,,,Парус,"Матырское водохранилище, Липецк Россия",52.54579,39.80707
16705123,2020-12-15,Липецкая область,Липецк,Отели,,,Sokolniki,"Ulitsa Kovalyova 111, Bldg.1, Липецк 398007 Россия",52.66873,39.61445
12682694,2020-12-15,Липецкая область,Липецк,Отели,,,Базилик,"Доватора, 43, Липецк 398024 Россия",52.59677,39.56322
6408917,2020-12-15,Липецкая область,Липецк,Отели,,,"Гостиница ""Юго-Западная""","трасса Москва — Харьков, Липецк 308000 Россия",52.60556,39.59751
20284048,2020-12-15,Липецкая область,Липецк,Отели,,,Гостевои дом Базилик Липецк,"Ulitsa Dovatora 43, Липецк 398024 Россия",52.60556,39.59751
21507785,2020-12-15,Липецкая область,Липецк,Отели,,,Hotel Park,"Тельмана 3 ""А"", Липецк 398002 Россия",52.618774,39.595375
8635173,2020-12-15,Липецкая область,Липецк,Отели,,,Адмирал,"ул. Ильича, 8, Липецк 398006 Россия",52.54321,39.58611
17733313,2020-12-15,Липецкая область,Липецк,Отели,,,Apart- Otel' Kvartiry Studii,"Admirala Makarova 8 Kvartira, Липецк 398005 Россия",52.5873,39.61999
16875818,2020-12-15,Липецкая область,Липецк,Отели,,,Apartamienty,"Ulitsa Dovatora 4 А, Липецк 398024 Россия",52.59623,39.561863
12926705,2020-12-15,Липецкая область,Липецк,Отели,,,Квартира Тут,"ул. Петра Смородина, 9а, Липецк 398046 Россия",52.59321,39.54019
19851054,2020-12-15,Липецкая область,Липецк,Отели,,,Легенды Задонщины,"Проспект Победы 29 помещение 8, офис 310, Липецк 398024 Россия",52.60556,39.59751
10559254,2020-12-15,Липецкая область,Липецк,Отели,,,Economy Hotel Dinamo,"Ulitsa Karla Marksa 27, Липецк 398000 Россия",52.60287,39.60794
20092653,2020-12-15,Липецкая область,Липецк,Отели,,,Форест Парк,"Сибирская 2А Желябова 2, Липецк 398050 Россия",52.6125,39.604527
14035096,2020-12-15,Липецкая область,Липецк,Отели,,,Valtncia,"Ulitsa Lenina 11, Липецк 398050 Россия",52.61285,39.60597
12155671,2020-12-15,Липецкая область,Липецк,Отели,,,Хостелы Рус - Советский,"ул. Максима Горького, д. 4, Липецк 398059 Россия",52.60003,39.58543
17650765,2020-12-15,Липецкая область,Липецк,Отели,,,Room,"Ulitsa Internatsional'naya 42, Липецк 398020 Россия",52.58952,39.56022
12543640,2020-12-15,Липецкая область,Липецк,Отели,,,Отель Валенсия,"улица Юношеская,77 Д, Липецк 398902 Россия",52.57791,39.47655
15894863,2020-12-15,Липецкая область,Липецк,Отели,,,Liproom Apartments On Smorodina,"улица Шевченко 4, Липецк 398046 Россия",52.59088,39.5409
3451973,2020-12-15,Липецкая область,Липецк,Отели,,,Строитель,"Суворова улица, д. 24, Липецк 398000 Россия",52.58139,39.61513
11592069,2020-12-15,Липецкая область,Липецк,Отели,,,Тревелер Отель,"Трубный проезд, 3В, Липецк 398037 Россия",52.625355,39.546272
14961263,2020-12-15,Липецкая область,Задонск,Отели,,,Piligrim Inn,"Ulitsa Krupskaya 47, Задонск 399201 Россия",52.38875,38.92061
13231427,2020-12-15,Липецкая область,Задонск,Отели,,,Hostel on Sovetskaya 50A,"Ulitsa Sovetskaya 50A, Задонск 399200 Россия",52.38592,38.92683
12687105,2020-12-15,Липецкая область,Задонск,Отели,,,Hotel AutoStop,"Lipovaya 8, Задонск 399200 Россия",52.3903,38.95383
21309476,2020-12-15,Липецкая область,Задонск,Отели,,,OOO AvtoStop,"Ul. Lipovaia, 8, Задонск 399241 Россия",52.38914,38.93091
21503416,2020-12-15,Липецкая область,Данков,Отели,,,Hotel Dankov,"Островского, 2, Данков 399850 Россия",53.23834,39.139854
13005341,2020-12-15,Липецкая область,Задонск,Отели,,,Gostinitsa Zadonsk Krupskaya 42,"Ul Krupskoi 42, Задонск 399200 Россия",52.39343,38.92016
7985312,2020-12-15,Липецкая область,Чаплыгин,Отели,,,Гостевой дом на Гаях,"Ulitsa Gorkogo 76, Чаплыгин 399900 Россия",53.24675,39.97711
13320225,2020-12-15,Липецкая область,Чаплыгин,Отели,,,Tsentral'naya,"60 Ulitsa Sovetskaya, Чаплыгин 399900 Россия",53.23974,39.96952
20996488,2020-12-15,Липецкая область,Чаплыгин,Отели,,,Гостевои дом Базилик Чаплыгин,"Ulitsa Sverdlova 9, Чаплыгин 399900 Россия",53.2279,39.94771
16821758,2020-12-15,Липецкая область,Ленинка,Отели,,,Guesthouse Kornica,"село Бутырки, урочище Хвостовское, Донской лесхоз, пансионат Малиновка, Ленинка 399237 Россия",52.513577,38.935513
21022724,2020-12-15,Липецкая область,Усмань,Отели,,,"Отель ""е-мое""","Льва Толстого, 2, Усмань 399370 Россия",52.03385,39.7239
10715226,2020-12-15,Липецкая область,Усмань,Отели,,,Bazilik Usman,"ul. Lenina, 17, Усмань 399370 Россия",52.12991,39.689186
20999762,2020-12-15,Липецкая область,Усмань,Отели,,,Mini-Otel Bazilik Usman,"Ulitsa Lenina 17, Усмань 399370 Россия",52.60556,39.5975
17649325,2020-12-15,Липецкая область,Усмань,Отели,,,Otel Yo-moyo,"L'va Tolstogo, 2, Усмань 399373 Россия",52.03385,39.7239
13322742,2020-12-15,Липецкая область,Усмань,Отели,,,Gostinitca Prichal,"V. Vel'yaminova d. 29 3 Etazh, Усмань 399370 Россия",52.044067,39.731274
13281149,2020-12-15,Липецкая область,Долгоруково,Отели,,,Usadba on Khoper,"Unnamed Road, Долгоруково 442872 Россия",52.32422,38.35968
16705176,2020-12-15,Липецкая область,Становое,Отели,,,Bazilik Stanovoye,"Lenina, Dom 12, Становое 399710 Россия",52.76273,38.365387
17615870,2020-12-15,Липецкая область,Елец,Отели,,,Коттедж,"Ул. 2ая Концевая Дом 25а, Елец 399783 Россия",52.61826,38.46146
12658861,2020-12-15,Липецкая область,Становлянский район,Отели,,,Turbaza Kazanskiy Lug,"Ulitsa Lugovaya 5, Казанский 399704 Россия",52.980053,38.036934
18379168,2020-12-15,Липецкая область,Александровка,Отели,,,Baza Otdykha Kazaki,"Ulitsa Vladimirskaya 1, Александровка 399756 Россия",52.661427,38.246
6208038,2020-12-15,Липецкая область,Копцевы Хутора,Отели,,,"Гостиница ""Полет""","на территории аэропорта, Копцевы Хутора 398501 Россия",52.69649,39.5265
12654499,2020-12-15,Липецкая область,Задонск,Отели,,,Gostinitsa Krupskoy 13,"13 ulitsa Krupskoy, Задонск 399200 Россия",52.39755,38.92461
7375181,2020-12-15,Липецкая область,п. Новая жизнь,Отели,,,На Морской,"Морская, 19а, п. Новая жизнь 398001 Россия",52.56798,39.72039
13320346,2020-12-15,Липецкая область,Тербуны,Отели,,,Baza Otdykha Terbunskoe Lukomorye,"Urochishche Mel'nichnyy Palets Vtoryye Terbuny, Тербуны 399551 Россия",52.131077,38.514336
14764737,2020-12-15,Липецкая область,Задонск,Отели,,,Guest House Palomnik,"63 Krupskaya, Задонск 399200 Россия",52.38589,38.9211
15299004,2020-12-15,Липецкая область,Елец,Отели,,,Хостел Зачет,"Вермишева 14 А 1 этаж, Елец 399700 Россия",52.61611,38.53248
21350866,2020-12-15,Липецкая область,Елец,Отели,,,Гостевои дом Tourist,"Ленина 99, Елец 399770 Россия",52.617683,38.505005
17628612,2020-12-15,Липецкая область,Елец,Отели,,,Apartment Bunina Park,"Privokzalnaya 2В 1, Елец 399773 Россия",52.60883,38.523376
2695849,2020-12-15,Липецкая область,Сырское,Отели,,,"Отель ""Славянский""","ул. Воронежская, 30, Сырское 398533 Россия",52.56685,39.51278
21251556,2020-12-15,Липецкая область,Елец,Отели,,,Panorama LUX,"63 Ulitsa Sovetskaya, Елец 399770 Россия",52.619514,38.498276
12662684,2020-12-15,Липецкая область,Елец,Отели,,,OTRaDa - Kemping,"Ul Ani Gayterovoy 6A, Елец 399772 Россия",52.60843,38.50381
11789072,2020-12-15,Липецкая область,Елец,Отели,,,Hostel Pulse,"Str. Radio engineering, 28A, Елец 399784 Россия",52.61445,38.47431
13531531,2020-12-15,Липецкая область,с. Казинкa,Отели,,,Mini-Hotel Kazinskaya,"60 Oktyabr'skaya Ulitsa 60, с. Казинкa 399071 Россия",52.52687,39.82161
7913976,2020-12-15,Липецкая область,с. Казинкa,Отели,,,Меридиан,"ул. Российская, 13, с. Казинкa 398908 Россия",52.53341,39.80533
17528532,2020-12-15,Липецкая область,Большая Кузьминка,Отели,,,Березка,"ул. Берёзовая, 8Б, Большая Кузьминка 398508 Россия",52.74971,39.70657
20997034,2020-12-15,Липецкая область,с. Казинкa,Отели,,,"Гостевои дом Усадьба ""Теплыи хутор""","Selskaya, 89а, с. Казинкa 399220 Россия",52.53817,39.82164
2703188,2020-12-15,Липецкая область,Липецк,Отели,,,Металлург на Пролетарской,"ул. Пролетарская, д. 13, Липецк 398050 Россия",52.614037,39.60813
20996293,2020-12-15,Липецкая область,Липецк,Отели,,,Homestay на улице Папина,"Ulitsa Papina 31B, Липецк 398024 Россия",52.591,39.550865
17707573,2020-12-15,Липецкая область,Липецк,Отели,,,Zvezdnyi,"Opytnaya, D.4A, Липецк 398037 Россия",52.63275,39.545
12916067,2020-12-15,Липецкая область,Липецк,Отели,,,Hostel on Prospekt Pobedy,"Prospert Pobedy 106a, Липецк 398046 Россия",52.58795,39.55002
8379188,2020-12-15,Липецкая область,Липецк,Отели,,,Хостел,"Универсальный проезд, 12 стр. 2, Липецк 398032 Россия",52.61812,39.54197
13072295,2020-12-15,Липецкая область,Липецк,Отели,,,EcoHostel,"48 ulitsa Shchorsa, Липецк 398020 Россия",52.62322,39.60277
8661723,2020-12-15,Липецкая область,Липецк,Отели,,,Валенсия,"ул. Юношеская, вл. 77д, Липецк 398902 Россия",52.57791,39.47655
8379345,2020-12-15,Липецкая область,Липецк,Отели,,,Дон,"Ленина, 11, Липецк 398050 Россия",52.60973,39.60182
17828762,2020-12-15,Липецкая область,Липецк,Отели,,,Hotel Polet,"4a Urizhainaya Street, Липецк 392000 Россия",52.60455,39.56045
8379277,2020-12-15,Липецкая область,Липецк,Отели,,,"Гостиничный Комплекс На Еловой, 62А","Еловая, 62а, Липецк 398056 Россия",52.65044,39.68462
20098216,2020-12-15,Липецкая область,Липецк,Отели,,,Mini Otel Atmosfera,"Ulitsa Ignat'yeva Dom 33/1, Липецк 398002 Россия",52.611958,39.576645
8654097,2020-12-15,Липецкая область,Липецк,Отели,,,Распутье,"ул. Юношеская, 45, Липецк 398902 Россия",52.57791,39.47655
2694688,2020-12-15,Липецкая область,Липецк,Отели,,,Полет,"Копцевы Хутора село, Аэропорт район, Липецк Россия",52.677395,39.457108
6765063,2020-12-15,Липецкая область,Стегаловка,Отели,,,"Усадьба ""Ведрова"" - Лесная сказка",Стегаловка 399500 Россия,52.40919,38.31628
11796984,2020-12-15,Липецкая область,Липецк,Отели,,,Club Na Morskoy,"Morskaya ul. 19А, Липецк 398901 Россия",52.56811,39.7194
6163775,2020-12-15,Липецкая область,Елец,Отели,,,"Гостиный двор ""Леон""","ул. Гоголя, 8А, Елец 399770 Россия",52.59194,38.50126
13082662,2020-12-15,Липецкая область,Липецк,Отели,,,Гостиница НА ПРОСПЕКТЕ,"Проспект Победы 106А 13 Etazh, Pomeshcheniye 103, Липецк 398046 Россия",52.58795,39.55002
10499097,2020-12-15,Липецкая область,Горицы,Отели,,,Goritsy Family Club,Горицы 399171 Россия,52.769375,39.759068
6741659,2020-12-15,Липецкая область,Липецк,Отели,,,Русская Усадьба,"Юных Натуралистов, 11, Липецк 398024 Россия",52.59846,39.56554
3572039,2020-12-15,Липецкая область,Липецк,Отели,,,Полёт Отель,"д. Копцевы Хутора, Липецк B1 Россия",52.60556,39.59751
7208097,2020-12-15,Липецкая область,Никольское,Отели,,,Гостиница Никольский,"Культурно-развлекательный центр Никольский, Никольское Россия",52.961384,38.547714
8700201,2020-12-15,Липецкая область,Данков,Отели,,,БАЗИЛИК ДАНКОВ,"Горького, 2, Данков 399850 Россия",53.24892,39.12607
12922994,2020-12-15,Липецкая область,Липецк,Отели,,,Авиатор,"ул. Гагарина 87А, Липецк 398000 Россия",52.61844,39.61644
10041877,2020-12-15,Липецкая область,Ильино,Отели,,,Сосновая гора,"ул. Сосновая гора, 1, Ильино 398507 Россия",52.714153,39.679813
2555959,2020-12-15,Липецкая область,Елец,Отели,,,Гостиница Елец,"ул. Коммунаров, д. 14, Елец 399770 Россия",52.625877,38.494057
6642618,2020-12-15,Липецкая область,Липецк,Отели,,,Лайк Хостел Липецк,"ул. Советская, дом 66, корпус Б, Липецк 398001 Россия",52.60437,39.581036
8669334,2020-12-15,Липецкая область,Липецк,Отели,,,Art Hostel Gagarin,"ulitsa Gagarina 41, Липецк 398002 Россия",52.61647,39.59413
10782688,2020-12-15,Липецкая область,Елец,Отели,,,Yel'chik,"Kommunarov 10-a, Елец 399774 Россия",52.62544,38.49786
8052040,2020-12-15,Липецкая область,Лебедянь,Отели,,,Пушкарская,"ул. 2-е Пушкари, Лебедянь 399612 Россия",53.00619,39.16792
6557479,2020-12-15,Липецкая область,Липецк,Отели,,,"Гостиница ""На Бунина""","ул. Бунина, д. 5, Липецк Россия",52.58365,39.52033
15276538,2020-12-15,Липецкая область,Екатериновка,Отели,,,"Отель ""Аладдин""","Улица Октябрьская, Екатериновка 399752 Россия",52.55711,38.697132
3595770,2020-12-15,Липецкая область,Задонский район,Отели,,,"Отель-клуб ""Донской лес""","ул.Контимировская, 9 территория Донской лес, Кашары 399210 Россия",52.46284,38.953808
2140777,2020-12-15,Липецкая область,Липецк,Отели,,,"Гостиница ""Комфорт""","ул. Ленина, 23, Липецк 398050 Россия",52.60973,39.60182
8456659,2020-12-15,Липецкая область,Чаплыгин,Отели,,,Our Mini-Hotel,"Ulitsa Sovetskaya 37, Чаплыгин 399900 Россия",53.23981,39.96768
9744757,2020-12-15,Липецкая область,Липецк,Отели,,,Sputnik Hotel,"Ulitsa Kraynyaya 7B, Липецк 398001 Россия",52.60495,39.57502
6741208,2020-12-15,Липецкая область,Липецк,Отели,,,Голубой Огонек,"Неделина, 25, Липецк 398059 Россия",52.59772,39.60326
2693851,2020-12-15,Липецкая область,Липецк,Отели,,,Люкс-Отель,"Смородина улица, д. 13Б, Липецк 398046 Россия",52.59321,39.54019
12707931,2020-12-15,Липецкая область,Конь-Колодезь,Отели,,,"Мотель ""Русь""","460 км трассы Дон, Конь-Колодезь 399281 Россия",52.12848,39.19752
8538126,2020-12-15,Липецкая область,Липецк,Отели,,,Mak Хостел,"ул. Терешковой 30, Липецк 398016 Россия",52.62171,39.56761
9569229,2020-12-15,Липецкая область,Тербуны,Отели,,,База отдыха Тербунское Лукоморье,Тербуны Россия,52.151165,38.278305
8783973,2020-12-15,Липецкая область,Елец,Отели,,,Хостел Куба,"улица Колхозная, 136, Елец 399744 Россия",52.62007,38.53733
6201151,2020-12-15,Липецкая область,Липецк,Отели,,,"Отель ""Палермо""","ул. Гагарина, д. 83, Липецк 398016 Россия",52.62164,39.5744
2173300,2020-12-15,Липецкая область,Липецк,Отели,,,Металлург отель,"ул. Ленина, д. 36, Липецк 398020 Россия",52.60973,39.60182
6516822,2020-12-15,Липецкая область,Липецк,Отели,,,Липецккурорт,"Салтыкова-Щедрина, 1, Липецк 398020 Россия",52.60714,39.60003
2695831,2020-12-15,Липецкая область,Липецк,Отели,,,Globus Group Fitness Hotel,"Ул. 40 лет Октября, 39, Липецк 398007 Россия",52.642124,39.65187
8843232,2020-12-15,Липецкая область,Липецк,Отели,,,Спутник,"ул. Крайняя, 7 Б, Липецк 398001 Россия",52.60332,39.57588
10079476,2020-12-15,Липецкая область,Липецк,Отели,,,Оливия,"ул. Катукова, 34а, Липецк 398036 Россия",52.58874,39.52044
3296358,2020-12-15,Липецкая область,Грязи,Отели,,,"Гостиница ""Виктория""","ул. Коммунальная, 11/5, Грязи 399053 Россия",52.48641,39.98341
2709155,2020-12-15,Липецкая область,Липецк,Отели,,,"Гостиница ""Советская""","Ворошилова улица, д. 5А, Липецк 398001 Россия",52.604645,39.589027
20808461,2020-12-15,Липецкая область,Липецк,Отели,,,Отель City,"ул. Салтыкова-Щедрина, 1Б, Липецк 398020 Россия",52.607975,39.601204
4415663,2020-12-15,Липецкая область,Елец,Отели,,,"Мини-отель ""Базилик""","ул. Мира, 88/17, Елец Россия",52.620476,38.500412
12702479,2020-12-15,Липецкая область,Липецк,Отели,,,Gostinitsa Globus-L,"ulitsa Gagarina 108, Липецк 398043 Россия",52.62344,39.5678
13341751,2020-12-15,Липецкая область,Чаплыгин,Отели,,,Старый РаненбургЪ,"улица Володарского, д. 49, Чаплыгин 399900 Россия",53.240242,39.962738
9809580,2020-12-15,Липецкая область,Елец,Отели,,,Парнас,"ул. Лермонтова, 13а, Елец 399770 Россия",52.61652,38.50239
6434771,2020-12-15,Липецкая область,Липецк,Отели,,,"Бутик-отель ""Плаза""","ул. Первомайская, д. 34, Липецк 398001 Россия",52.603275,39.58987
3702963,2020-12-15,Липецкая область,Липецк,Отели,,,Лагуна  Липецк  Отель,"пл. Мира, д. 1д, Липецк 398005 Россия",52.590435,39.61484
19851771,2020-12-15,Липецкая область,Задонск,Отели,,,Motel Bolshoye Panarino,"Bolshoye Panarino 91, Задонск 399200 Россия",52.377476,38.895126
6668026,2020-12-15,Липецкая область,Липецк,Отели,,,Соколье,"ул. Баумана, 307Б, Липецк 398026 Россия",52.65448,39.68924
1723936,2020-12-15,Липецкая область,Липецк,Отели,,,Гостиница Липецк,"Ленина улица, д. 11, Липецк 398050 Россия",52.612656,39.60583
6612096,2020-12-15,Липецкая область,Елец,Отели,,,Мотель Привал,"ул. 2-я Концевая, д. 23, Елец 399783 Россия",52.6185,38.461193
19635958,2020-12-15,Липецкая область,Елец,Отели,,,Hotel Vintage,"Sovetskaya 76, Елец 399772 Россия",52.62129,38.49957
12621397,2020-12-15,Липецкая область,Елец,Отели,,,"Отель ""Снегири""","ул. Ленина, 83, Елец Россия",52.624454,38.497475
3588421,2020-12-15,Липецкая область,Липецк,Отели,,,Меркюр Липецк Центр,"Театральная площадь, 3, Липецк 398019 Россия",52.606365,39.59376
14787058,2020-12-15,Липецкая область,Липецк,Рестораны,,,Штольня,"ул.Петра Смородина 9А, Липецк 398046 Россия",52.59321,39.54019
6189239,2020-12-15,Липецкая область,Липецк,Рестораны,,,Буфет,"Плеханова, 61, Липецк 398050 Россия",52.615967,39.60519
10024443,2020-12-15,Липецкая область,Липецк,Рестораны,,,Ресторан Библиотека №1,"ул. Кузнечная, д Б, Липецк 398050 Россия",52.607666,39.59728
6189202,2020-12-15,Липецкая область,Липецк,Рестораны,,,Лимончелло,"Льва Толстого, 1, Липецк 398001 Россия",52.60594,39.59219
7118708,2020-12-15,Липецкая область,Липецк,Рестораны,,Кафе,Хлебная Лавка 2.0,"ул. Катукова, 51, Липецк 398004 Россия",52.593346,39.505444
6189332,2020-12-15,Липецкая область,Липецк,Рестораны,,,Пицца на Первомайской,"Первомайская, 78, Липецк 398001 Россия",52.603058,39.57903
6189400,2020-12-15,Липецкая область,Липецк,Рестораны,,Кафе,Шоколад,"Плеханова площадь, 1, Липецк 398050 Россия",52.61196,39.59899
7913108,2020-12-15,Липецкая область,Задонск,Рестораны,,,Restaurant Castle Rose,"ул. Советская, 24Б, Задонск 399201 Россия",52.387444,38.920773
6755124,2020-12-15,Липецкая область,Липецк,Рестораны,,Паб,Шульц,"ул.Неделина, д.15В, Липецк 398059 Россия",52.598057,39.585426
6189220,2020-12-15,Липецкая область,Липецк,Рестораны,,,Антонио,"Неделина, 15в, Липецк 398059 Россия",52.59825,39.58511
2658937,2020-12-15,Липецкая область,Липецк,Рестораны,,,Амстердам,"ул. Пролетарская, д. 13, Липецк 398050 Россия",52.616333,39.60418
6990301,2020-12-15,Липецкая область,Липецк,Рестораны,,,Фёст Кафе,"ул. Плеханова, д.35, Липецк 398050 Россия",52.613983,39.601192
6677947,2020-12-15,Липецкая область,Елец,Рестораны,,,Старый Город,"ул. Мира, 100, Елец Россия",52.60889,38.49784
19121719,2020-12-15,Липецкая область,Елец,Рестораны,,,Hedgehog In The Fog,"Яна Фабрициуса 10, Елец 399773 Россия",52.61159,38.520733
7605840,2020-12-15,Липецкая область,Липецк,Рестораны,,,Иль Песто,"Театральная пл., 3 Mercure Lipetsk Center, Липецк 398019 Россия",52.60665,39.59386
13835633,2020-12-15,Липецкая область,Данков,Рестораны,,,Бальзаминов,"ул. Карла Маркса, 28, Данков 399850 Россия",53.246944,39.131702
17605259,2020-12-15,Липецкая область,Задонск,Рестораны,,,Ресторан гостиницы ЗАДОНСК,"Коммуны, 13, Задонск 399200 Россия",52.39337,38.91449
6189307,2020-12-15,Липецкая область,Липецк,Рестораны,,Фастфуд,Макдоналдс,"60 лет СССР проспект, 22, Липецк 398046 Россия",52.586445,39.53552
6189333,2020-12-15,Липецкая область,Липецк,Рестораны,,,Пицца Итальяна,"Космонавтов, 5/5, Липецк 398002 Россия",52.61791,39.58238
6189379,2020-12-15,Липецкая область,Липецк,Рестораны,,,Форвард,"Советская, 25, Липецк 398001 Россия",52.65679,39.72761
6189234,2020-12-15,Липецкая область,Липецк,Рестораны,,,Баскин Роббинс,"Зегеля, 23а, Липецк 398050 Россия",52.614216,39.597736
6189390,2020-12-15,Липецкая область,Липецк,Рестораны,,,Хуторок,"Гагарина, 101, Липецк 398016 Россия",52.61844,39.61644
19126534,2020-12-15,Липецкая область,Липецк,Рестораны,,,BUCHO Wine Bar,"Зегеля, 2, Липецк 398050 Россия",52.610806,39.600136
12639584,2020-12-15,Липецкая область,Липецк,Рестораны,,"Бар,Паб",Braubauer,"ул. Советская, 30, Липецк 398001 Россия",52.65679,39.72761
7011533,2020-12-15,Липецкая область,Липецк,Рестораны,,Бар,кафе Jazz,"ул. Интернациональная, 6, Липецк 398050 Россия",52.61126,39.600758
7277074,2020-12-15,Липецкая область,Липецк,Рестораны,,,Автосуши,"ул. Интернациональная, д. 41, Липецк 398050 Россия",52.61183,39.59999
18967185,2020-12-15,Липецкая область,Елец,Рестораны,,,Lenin Lounge Bar,"Мира,  114, Елец Россия",52.625,38.5016
15700521,2020-12-15,Липецкая область,Липецк,Рестораны,,Паб,Бройбауер,"Бехтеева, 1, Липецк 398070 Россия",52.53901,39.5945
6189203,2020-12-15,Липецкая область,Липецк,Рестораны,,,Карлсон Кафе на Высоте,"Ленина, 11 8th Floor, Липецк 398050 Россия",52.612637,39.605804
8507867,2020-12-15,Липецкая область,Липецк,Рестораны,,,Creme,"ул. Советская, д. 66б, Липецк 398001 Россия",52.60491,39.59446
12094204,2020-12-15,Липецкая область,Липецк,Рестораны,,,"Кафе ""Шафран""","пр. Победы, 70Б, Липецк 398001 Россия",52.60329,39.57497
8345966,2020-12-15,Липецкая область,Липецк,Рестораны,,Бар,Де'Бассус,"Катукова, 23, Липецк 398036 Россия",52.58449,39.519646
15606622,2020-12-15,Липецкая область,Липецк,Рестораны,,Кафе,Дом,"Карла Маркса, 27, Липецк 398001 Россия",52.60455,39.59868
6189387,2020-12-15,Липецкая область,Липецк,Рестораны,,,Час-Пик-Молл,"Терешковой, 35Б, Липецк 398002 Россия",52.62171,39.56761
7776912,2020-12-15,Липецкая область,Липецк,Рестораны,,,Kuznechnaya Hall,"ул. Кузнечная, 4Б, Липецк 398050 Россия",52.60751,39.59685
6189421,2020-12-15,Липецкая область,Липецк,Рестораны,,,Лоренцо,"Плеханова, 59, Липецк 398050 Россия",52.61196,39.59899
10085252,2020-12-15,Липецкая область,Липецк,Рестораны,,,Гараж,"ул. Крайняя, 7, Липецк 398001 Россия",52.60332,39.57588
6189182,2020-12-15,Липецкая область,Липецк,Рестораны,,,Belov,"Октябрьская, 28, Липецк 398059 Россия",52.60128,39.60113
8519289,2020-12-15,Липецкая область,Липецк,Рестораны,,Кафе,Фарфор,"8 Марта, 9, Липецк 398001 Россия",52.586838,39.51464
13970911,2020-12-15,Липецкая область,Лебедянь,Рестораны,,,Gusto,"ул. Мира, 12, Лебедянь 399610 Россия",53.0112,39.13237
11671934,2020-12-15,Липецкая область,Липецк,Рестораны,,,"Ресторан китайской кухни ""Хуан Хэ""","пр. Победы, 8, Липецк 398001 Россия",52.60199,39.57224
12877536,2020-12-15,Липецкая область,Липецк,Рестораны,,,Борода Бар,"ул. Космонавтов, 8, Липецк 398016 Россия",52.61761,39.58127
6189276,2020-12-15,Липецкая область,Липецк,Рестораны,,,Кафе Хаус,"Первомайская, 121, Липецк 398059 Россия",52.60393,39.59874
13464367,2020-12-15,Липецкая область,Липецк,Рестораны,,,Быханов,"ул. Тельмана, 19, Липецк 398002 Россия",52.61854,39.60103
16696691,2020-12-15,Липецкая область,Липецк,Рестораны,,Бар,Томато,"Космонавтов,  104, Липецк 398002 Россия",52.606716,39.542595
7834389,2020-12-15,Липецкая область,Липецк,Рестораны,,,Суши WOK,"ул. Желябова, 16, Липецк 398050 Россия",52.61257,39.60453
6189325,2020-12-15,Липецкая область,Липецк,Рестораны,,,Петергофъ,"Фрунзе, 7а, Липецк 398059 Россия",52.60635,39.59282
7213345,2020-12-15,Липецкая область,Липецк,Рестораны,,,Ташир,"Советская, 4, Липецк 398001 Россия",52.60491,39.59446
8347650,2020-12-15,Липецкая область,Липецк,Рестораны,,,Лобби Бар,"Театральная площадь, 3, Липецк 398001 Россия",52.6051,39.59092
2710570,2020-12-15,Липецкая область,Липецк,Рестораны,,,Евразия,"ул. Ленина, 11 398050, Липецк Россия",52.61169,39.60496
10478019,2020-12-15,Липецкая область,Липецк,Рестораны,,,Кафе Челси,"ул. Петра Смородина, 13 A, Липецк 398046 Россия",52.59321,39.54019
6189380,2020-12-15,Липецкая область,Липецк,Рестораны,,,Токио,"Петра Смородина, 13а, Липецк 398046 Россия",52.59321,39.54019
14653350,2020-12-15,Липецкая область,Липецк,Рестораны,,,KFC,"ул.Космонавтов 98 ТЦ Ноябрьский, Липецк 398002 Россия",52.61791,39.58238
6189199,2020-12-15,Липецкая область,Липецк,Рестораны,,Фастфуд,RusBurger,"Ленина, 11, Липецк 398050 Россия",52.60973,39.60182
8348625,2020-12-15,Липецкая область,Липецк,Рестораны,,"Бар,Паб",Пенный Дворик,"Терешковой, 3/1, Липецк 398016 Россия",52.62171,39.56761
6189279,2020-12-15,Липецкая область,Липецк,Рестораны,,,Компот,"Интернациональная, 21, Липецк 398050 Россия",52.61183,39.59999
8350979,2020-12-15,Липецкая область,Липецк,Рестораны,,"Бар,Паб",СССР,"Терешковой, 20, Липецк 398043 Россия",52.62171,39.56761
6189323,2020-12-15,Липецкая область,Липецк,Рестораны,,,На Дворянской,"Ленина, 36, Липецк 398020 Россия",52.60973,39.60182
16813549,2020-12-15,Липецкая область,Данков,Рестораны,,,Околица,"Кирова, 111-113, Данков 399853 Россия",53.24808,39.12466
6189358,2020-12-15,Липецкая область,Липецк,Рестораны,,,Старая мельница,"Победы проспект, 93Б, Липецк 398046 Россия",52.58559,39.54899
13173840,2020-12-15,Липецкая область,Липецк,Рестораны,,Кафе,BRICS,"ул. Ленина, 11, Липецк 398050 Россия",52.612648,39.605877
15181084,2020-12-15,Липецкая область,Данков,Рестораны,,,Кафе Огни,"Мира, 11, Данков 399850 Россия",53.24642,39.14779
19436272,2020-12-15,Липецкая область,Липецк,Рестораны,,,Тарантино,"Бехтеева, 10, Липецк 398070 Россия",52.53901,39.5945
17528373,2020-12-15,Липецкая область,Большая Кузьминка,Рестораны,,,Гутен Таг,"Берёзовая, 8Б, Большая Кузьминка 398508 Россия",52.74971,39.70657
14075085,2020-12-15,Липецкая область,Липецк,Рестораны,,Кафе,Rioba,"ул. 50 Лет НЛМК , 8, Липецк 398059 Россия",52.58761,39.58793
16695807,2020-12-15,Липецкая область,Липецк,Рестораны,,,Saxar,"ул. Московская, 75А, Липецк 398055 Россия",52.60799,39.51431
6189187,2020-12-15,Липецкая область,Липецк,Рестораны,,,Кафе 82,"Петра Великого площадь, 1, Липецк 398001 Россия",52.60219,39.60593
7295633,2020-12-15,Липецкая область,Липецк,Рестораны,,,Кафе Онегин,"ул. Космонавтов, 110, Липецк 398042 Россия",52.61791,39.58238
6189192,2020-12-15,Липецкая область,Липецк,Рестораны,,Кафе,Coffee On Your Way,"Белана, 26, Липецк 398036 Россия",52.58468,39.50712
6744672,2020-12-15,Липецкая область,Липецк,Рестораны,,Паб,Пивбург,"Ушинского, 8, Липецк 398007 Россия",52.63693,39.66159
8344726,2020-12-15,Липецкая область,Липецк,Рестораны,,"Бар,Паб",Бирвиль,"Желябова, 31, Липецк 398050 Россия",52.61257,39.60453
8344677,2020-12-15,Липецкая область,Липецк,Рестораны,,"Бар,Паб",Бавария,"Мира проспект, 16, Липецк 398005 Россия",52.59109,39.61616
6189384,2020-12-15,Липецкая область,Липецк,Рестораны,,,Фауст,"Карла Маркса, 5, Липецк 398001 Россия",52.60455,39.59868
6189296,2020-12-15,Липецкая область,Липецк,Рестораны,,,Мангал,"Газина, 12а, Липецк 398026 Россия",52.63459,39.65878
16851523,2020-12-15,Липецкая область,Чаплыгин,Рестораны,,,Старый РаненбургЪ,"Володарского,  д. 49, Чаплыгин 399900 Россия",53.23607,39.95849
6745093,2020-12-15,Липецкая область,Липецк,Рестораны,,Паб,Три богатыря,"Ленина, 33, Липецк 398020 Россия",52.60973,39.60182
6744372,2020-12-15,Липецкая область,Липецк,Рестораны,,Паб,Кружка,"Терешковой, 13а, Липецк 398002 Россия",52.62171,39.56761
8349576,2020-12-15,Липецкая область,Липецк,Рестораны,,,Шашлычная №1,"Максима Горького, 11а, Липецк 398001 Россия",52.60003,39.58543
8345203,2020-12-15,Липецкая область,Липецк,Рестораны,,Фастфуд,Бургер Кинг,"Советская, 66, Липецк 398001 Россия",52.65679,39.72761
6189188,2020-12-15,Липецкая область,Липецк,Рестораны,,Кафе,Chelsea,"Советская, 66, Липецк 398001 Россия",52.60628,39.57727
13239408,2020-12-15,Липецкая область,Липецк,Рестораны,,"Паб,Гастропаб","Гастробар ""Щепка""","Ул. Стаханова, Д.2, Липецк 398000 Россия",52.59613,39.53492
10836907,2020-12-15,Липецкая область,Конь-Колодезь,Рестораны,,,Самолет,"трасса М4 Дон, Конь-Колодезь 399281 Россия",52.11835,39.18861
11637362,2020-12-15,Липецкая область,Чаплыгин,Рестораны,,,Кафе Plaza,"ул. Советская, 39, Чаплыгин 399900 Россия",53.23403,39.98527
8785210,2020-12-15,Липецкая область,Елец,Рестораны,,"Бар,Паб",Rigel Restaurant,"Радиотехническая улица, 1а, Елец 399774 Россия",52.61176,38.47675
6189242,2020-12-15,Липецкая область,Липецк,Рестораны,,,Глория,"Краснозаводская, 2ж, Липецк 398006 Россия",52.54508,39.57695
6189363,2020-12-15,Липецкая область,Липецк,Рестораны,,,Страйк,"Липовская, 5, Липецк 398002 Россия",52.61421,39.58925
6189376,2020-12-15,Липецкая область,Липецк,Рестораны,,,Трактиръ,"Ушинского, 8, Липецк 398007 Россия",52.63693,39.66159
6744295,2020-12-15,Липецкая область,Липецк,Рестораны,,"Бар,Паб",Кино,"Кузнечный пер, 20, Липецк 398050 Россия",52.61059,39.59441
8346450,2020-12-15,Липецкая область,Липецк,Рестораны,,,Феста,"9 Мая, 22, Липецк 398017 Россия",52.57406,39.6173
6189369,2020-12-15,Липецкая область,Липецк,Рестораны,,,Траттория,"Космонавтов, 98, Липецк 398042 Россия",52.61791,39.58238
6185062,2020-12-15,Липецкая область,Липецк,Рестораны,,,Охота,"Петра Великого площадь, 1, Липецк 398001 Россия",52.60219,39.60593
6189269,2020-12-15,Липецкая область,Липецк,Рестораны,,Кафе,Истоки,"Театральная площадь, 1, Липецк 398019 Россия",52.605034,39.58981
6189795,2020-12-15,Липецкая область,Липецк,Рестораны,,,Губернская,"Кузнечная, 8, Липецк 398050 Россия",52.60751,39.59685
8376970,2020-12-15,Липецкая область,Липецк,Рестораны,,"Бар,Паб",Янтарный Двор,"ул. Тельмана, 90, Липецк 398002 Россия",52.61854,39.60103
15038575,2020-12-15,Липецкая область,Липецк,Рестораны,,Кафе,Вобла,"Свиридова, 2, Липецк 398027 Россия",52.58054,39.50216
12583127,2020-12-15,Липецкая область,Грязи,Рестораны,,,"Кафе ""Айсберг""","ул. 30 лет Победы, 52, Грязи 399056 Россия",52.49765,39.94484
6189312,2020-12-15,Липецкая область,Липецк,Рестораны,,,Масленица,"Советская, 66, Липецк 398001 Россия",52.65679,39.72761
6189388,2020-12-15,Липецкая область,Липецк,Рестораны,,,Час-Пик,"Московская, 103, Липецк 398055 Россия",52.60799,39.51431
6189226,2020-12-15,Липецкая область,Липецк,Рестораны,,,Анкона,"Терешковой, 13Б, Липецк 398002 Россия",52.62171,39.56761
6743920,2020-12-15,Липецкая область,Липецк,Рестораны,,Паб,Бухарест,"Ленина, 17, Липецк 398050 Россия",52.60973,39.60182
12881671,2020-12-15,Липецкая область,Липецк,Рестораны,,,Де Бассус,"ул. Плеханова, 37/6, Липецк 398050 Россия",52.614273,39.601498
6189316,2020-12-15,Липецкая область,Липецк,Рестораны,,,Маска,"Советская, 4, Липецк 398001 Россия",52.65679,39.72761
17847751,2020-12-15,Липецкая область,Липецк,Рестораны,,,Бискафе,"ул. Студёновская, 123, Липецк 398007 Россия",52.627396,39.642853
12690994,2020-12-15,Липецкая область,Липецк,Рестораны,,,Брюссель Гастрономический Паб,"ул. Терешковой, 18A, Липецк Россия",52.615986,39.56836
13284794,2020-12-15,Липецкая область,Тёплое,Рестораны,,,"Кафе ""Теплое""","улица Мокрая Слобода, 126А, Тёплое 399640 Россия",52.910824,39.209827
13094264,2020-12-15,Липецкая область,Липецк,Рестораны,,,White Tiger,"ул. Советская, д. 66б, Липецк 398001 Россия",52.60424,39.580082
15069307,2020-12-15,Липецкая область,Лебедянь,Рестораны,,,Очаг,"Ленина, 10, Лебедянь 399610 Россия",53.012024,39.13433
8348296,2020-12-15,Липецкая область,Липецк,Рестораны,,,Ной,"Победы проспект, 1, Липецк 398024 Россия",52.60199,39.57224
13378650,2020-12-15,Липецкая область,Липецк,Рестораны,,Паб,Vaclav Bar,"ул. Стаханова, 61, Липецк 398004 Россия",52.59613,39.53492
8349738,2020-12-15,Липецкая область,Липецк,Рестораны,,,Штирлих,"Адмирала Макарова, 2, Липецк 398005 Россия",52.5888,39.61946
6743154,2020-12-15,Липецкая область,Липецк,Рестораны,,"Бар,Паб",Коктейль Холл,"Студёновская, 124а, Липецк 398007 Россия",52.618366,39.616646
16814250,2020-12-15,Липецкая область,Липецк,Рестораны,,Фастфуд,Papa Grill,"Катукова, 51, Липецк 398004 Россия",52.58053,39.53395
6189310,2020-12-15,Липецкая область,Липецк,Рестораны,,Кафе,Мерланг,"Катукова, 27а, Липецк 398036 Россия",52.58053,39.53395
16852836,2020-12-15,Липецкая область,Липецк,Рестораны,,,ЛОНДОН,"Ворошилова, 3, Липецк 398001 Россия",52.603466,39.588997
6189214,2020-12-15,Липецкая область,Липецк,Рестораны,,,Автосуши,"Меркулова, 10а, Липецк 398046 Россия",52.59082,39.54623
13413663,2020-12-15,Липецкая область,Липецк,Рестораны,,,Terkin GastroPub,"Первомайская улица, 82, Липецк 398001 Россия",52.60393,39.59874
14139850,2020-12-15,Липецкая область,Липецк,Рестораны,,"Бар,Фастфуд",ShishaGrill,"ул.Первомайская 82, Липецк 398001 Россия",52.60332,39.59033
9602844,2020-12-15,Липецкая область,Лебедянь,Рестораны,,,Час Пик,"ул. Мира, 9, Лебедянь 399610 Россия",53.0112,39.13237
17465322,2020-12-15,Липецкая область,Елец,Рестораны,,,Gridneff Coffee,"ул. Льва Толстого, 13, Елец 399770 Россия",52.62231,38.50582
8525924,2020-12-15,Липецкая область,Липецк,Рестораны,,,Гауди,"ул. Советская, д. 64, Липецк 398001 Россия",52.60491,39.59446
15105361,2020-12-15,Липецкая область,Липецк,Рестораны,,Фастфуд,Burger King,"Катукова, 51 ТЦ Ривьера, 3 этаж, Липецк 398036 Россия",52.58053,39.53395
8347104,2020-12-15,Липецкая область,Липецк,Рестораны,,Фастфуд,KFC,"Советская, 66, Липецк 398001 Россия",52.65679,39.72761
6189224,2020-12-15,Липецкая область,Липецк,Рестораны,,,Арагви,"Космонавтов, 26, Липецк 398016 Россия",52.61791,39.58238
12010143,2020-12-15,Липецкая область,Задонск,Рестораны,,,Орхидея,"ул. Крупской, 58, Задонск 399200 Россия",52.39948,38.92438
9752607,2020-12-15,Липецкая область,Елец,Рестораны,,,Караоке ЛетоБар,"ул. Коммунаров, 12а, Елец 399770 Россия",52.62835,38.46936
6189206,2020-12-15,Липецкая область,Липецк,Рестораны,,,Yes! Pizza,"Советская, 66, Липецк 398001 Россия",52.65679,39.72761
6925615,2020-12-15,Липецкая область,Липецк,Рестораны,,,Teатро,"Театральная площадь, 2, Липецк 398019 Россия",52.605034,39.58981
20307691,2020-12-15,Липецкая область,Елец,Рестораны,,,Гранд Елец,"ул. Маяковского, 5, Елец 399770 Россия",52.62598,38.50478
8596971,2020-12-15,Липецкая область,Липецк,Рестораны,,,"О,Бистро!","Кузнечный переулок, дом 20, Липецк 398002 Россия",52.60951,39.593403
13231502,2020-12-15,Липецкая область,Лев Толстой,Рестораны,,,"Kафе ""Рандеву""","ул. Слонского, 35, Лев Толстой 399870 Россия",53.2136,39.44189
20089353,2020-12-15,Липецкая область,Елец,Рестораны,,,Mybox,"Московское шоссе, 3а, Елец Россия",52.62986,38.45764
10477834,2020-12-15,Липецкая область,Липецк,Рестораны,,,Караоке-бар Винил,"Ул. Александровская, 1 Д, Липецк Россия",52.63867,38.46171
7277451,2020-12-15,Липецкая область,Липецк,Рестораны,,,Русич,"ул. Терешковой, д. 28/5, Липецк 398043 Россия",52.61902,39.56737
12994736,2020-12-15,Липецкая область,Липецк,Рестораны,,Бар,Анданте,"ул. Доватора 61а, Липецк 398024 Россия",52.59677,39.56322
8515171,2020-12-15,Липецкая область,Липецк,Рестораны,,"Бар,Паб",Discount Beer,"ул. Зои Космодемьянской, д. 1, Липецк 398005 Россия",52.58944,39.61802
6744082,2020-12-15,Липецкая область,Липецк,Рестораны,,"Бар,Паб",Десерт,"Советская, 66, Липецк 398001 Россия",52.65679,39.72761
7277463,2020-12-15,Липецкая область,Липецк,Рестораны,,Фастфуд,Русь,"ул. Доватора, д. 12, Липецк 398024 Россия",52.59677,39.56322
8344302,2020-12-15,Липецкая область,Липецк,Рестораны,,"Бар,Паб",Аполлон,"Агрономическая, 12а, Липецк 398037 Россия",52.63281,39.54665
8350545,2020-12-15,Липецкая область,Липецк,Рестораны,,,Таверна,"Московская, 47а, Липецк 398042 Россия",52.60799,39.51431
8350692,2020-12-15,Липецкая область,Липецк,Рестораны,,"Бар,Паб",Точка,"Парковая, 10, Липецк 398005 Россия",52.58206,39.61467
21468456,2020-12-15,Липецкая область,Липецк,Рестораны,,,W.JUNI,"ул. Космонавтов, 5/5, Липецк 398016 Россия",52.616573,39.574856
17598663,2020-12-15,Липецкая область,Доброе,Рестораны,,"Кафе,Фастфуд",Handmade,"пер. Советский, 3г, Доброе Россия",52.85779,39.82844
7277519,2020-12-15,Липецкая область,Липецк,Рестораны,,,Сокол,"ул. Баумана, д. 1б, Липецк 398026 Россия",52.65448,39.68924
15274585,2020-12-15,Липецкая область,Елец,Рестораны,,,Кронберг,"Советская, 48, Елец 399770 Россия",52.61189,38.49575
8350710,2020-12-15,Липецкая область,Липецк,Рестораны,,"Бар,Паб",Топ Бирс,"Петра Смородина, 11, Липецк 398046 Россия",52.59321,39.54019
17728630,2020-12-15,Липецкая область,Елец,Рестораны,,,Везу кофе.ру,"Радиотехническая, 5 ТК ""Ваш Дом"" площадь Фонтана, Елец 399782 Россия",52.610294,38.47434
7211537,2020-12-15,Липецкая область,Усмань,Рестораны,,,Kафе-бар Стоун,"ул. Карла Маркса, 122В, Усмань 399373 Россия",52.059093,39.7401
20089548,2020-12-15,Липецкая область,Елец,Рестораны,,,Mybox,"Радиотехническая ул., 1а, корп. 2, Елец 399784 Россия",52.613403,38.471214
13231506,2020-12-15,Липецкая область,Лев Толстой,Рестораны,,,"Kафе ""Хуторок""","ул. Льва Толстого, 82, Лев Толстой 399870 Россия",53.2094,39.43486
8348804,2020-12-15,Липецкая область,Липецк,Рестораны,,"Бар,Паб",Пивной Дворъ,"Ульяны Громовой, 2, Липецк 398024 Россия",52.60287,39.57065
7213339,2020-12-15,Липецкая область,Липецк,Рестораны,,,Дикая утка,"Коммунистическая, 4, Липецк 398006 Россия",52.54457,39.57479
7213343,2020-12-15,Липецкая область,Липецк,Рестораны,,,Робинзон,"8 Марта, 9, Липецк 398001 Россия",52.60671,39.58506
7213344,2020-12-15,Липецкая область,Липецк,Рестораны,,Фастфуд,У Василича,"Шуминского, 6, Липецк 398036 Россия",52.58456,39.51766
7213346,2020-12-15,Липецкая область,Липецк,Рестораны,,,Нива,"Полины Осипенко, 8, Липецк 398017 Россия",52.57877,39.61858
8348823,2020-12-15,Липецкая область,Липецк,Рестораны,,"Бар,Паб",Пивсоюз,"Хорошавина, 2, Липецк 398004 Россия",52.58454,39.51703
7213347,2020-12-15,Липецкая область,Липецк,Рестораны,,,Лас-Вегас,"Шерстобитова, 8, Липецк 398036 Россия",52.58237,39.51037
21373963,2020-12-15,Липецкая область,Липецк,Рестораны,,,Farfor,"Коммунальная, 8а, Липецк 398059 Россия",52.0258,37.88244
7277284,2020-12-15,Липецкая область,Липецк,Рестораны,,,Арго,"Заводская площадь, д. 3, Липецк 398007 Россия",52.63444,39.66007
8345648,2020-12-15,Липецкая область,Липецк,Рестораны,,,Чарка,"Мира проспект, 20, Липецк 398005 Россия",52.59109,39.61616
6745045,2020-12-15,Липецкая область,Липецк,Рестораны,,"Бар,Паб",Тайм Аут,"Космонавтов, 12, Липецк 398016 Россия",52.61791,39.58238
6743934,2020-12-15,Липецкая область,Липецк,Рестораны,,"Бар,Паб",Веста,"Крупской, 3а, Липецк 398005 Россия",52.5765,39.61303
6743919,2020-12-15,Липецкая область,Липецк,Рестораны,,Паб,Бухарест,"Стаханова, 49а, Липецк Россия",52.59613,39.53492
8344095,2020-12-15,Липецкая область,Липецк,Рестораны,,"Бар,Паб",5 Оборотов,"Суворова, 20, Липецк 398017 Россия",52.58139,39.61513
6743931,2020-12-15,Липецкая область,Липецк,Рестораны,,Паб,Вайцен,"60 лет СССР проспект, 20/1, Липецк 398046 Россия",52.58487,39.54039
6745183,2020-12-15,Липецкая область,Липецк,Рестораны,,"Бар,Паб",Фора,"8 Марта, 36, Липецк 398001 Россия",52.60704,39.586758
6189428,2020-12-15,Липецкая область,Липецк,Рестораны,,,Аквамарин,"Стаханова, 35Б, Липецк 398036 Россия",52.59613,39.53492
6745175,2020-12-15,Липецкая область,Липецк,Рестораны,,"Бар,Паб",Фора,"Космонавтов, 98а, Липецк 398042 Россия",52.61791,39.58238
8351067,2020-12-15,Липецкая область,Липецк,Рестораны,,"Бар,Паб",Вдали От Жен,"Студёновская, 19, Липецк 398020 Россия",52.618366,39.616646
6189381,2020-12-15,Липецкая область,Липецк,Рестораны,,,Фаэтон,"Космонавтов, 70а, Липецк 398032 Россия",52.61791,39.58238
8348535,2020-12-15,Липецкая область,Липецк,Рестораны,,,Паровоз,"Гагарина, 106, Липецк 398016 Россия",52.61844,39.61644
6189382,2020-12-15,Липецкая область,Липецк,Рестораны,,,Фарт,"Победы площадь, 6а, Липецк 398001 Россия",52.60329,39.57497
6189397,2020-12-15,Липецкая область,Липецк,Рестораны,,,Ялта,"Водопьянова, 15, Липецк 398046 Россия",52.58836,39.54952
6189396,2020-12-15,Липецкая область,Липецк,Рестораны,,,Шампур,"Победы проспект, 1Б, Липецк 398024 Россия",52.60199,39.57224
6189399,2020-12-15,Липецкая область,Липецк,Рестораны,,,Шашлычная,"Водопьянова, 15/3, Липецк 398046 Россия",52.58836,39.54952
6745185,2020-12-15,Липецкая область,Липецк,Рестораны,,"Бар,Паб",Фора,"60 лет СССР проспект, 37, Липецк 398036 Россия",52.58446,39.5425
8551449,2020-12-15,Липецкая область,Липецк,Рестораны,,"Бар,Паб",Mr. Beers,"ул. Скороходова, д. 1г, Липецк 398001 Россия",52.60534,39.59491
13438230,2020-12-15,Липецкая область,Липецк,Рестораны,,Кафе,Крафт Бургер,"ул. Меркулова, 10а, Липецк 398046 Россия",52.59082,39.54623
21290992,2020-12-15,Липецкая область,Липецк,Рестораны,,,Solovey,"Московская 75А, Липецк 398042 Россия",52.608486,39.529465
6745190,2020-12-15,Липецкая область,Липецк,Рестораны,,"Бар,Паб",Фора,"Победы проспект, 59Б, Липецк 398024 Россия",52.60199,39.57224
6189507,2020-12-15,Липецкая область,Липецк,Рестораны,,Фастфуд,Липка,"Космонавтов, 44/3, Липецк 398043 Россия",52.61791,39.58238
15662893,2020-12-15,Липецкая область,Липецк,Рестораны,,,Brutal Panda Bar,"Интернациональная,  41, Липецк 398050 Россия",52.61183,39.59999
6189521,2020-12-15,Липецкая область,Липецк,Рестораны,,,Сетай,"Космонавтов, 98, Липецк 398042 Россия",52.61791,39.58238
6743659,2020-12-15,Липецкая область,Липецк,Рестораны,,"Бар,Паб",Аленка,"Бунина, 15, Липецк 398036 Россия",52.58396,39.519505
8348808,2020-12-15,Липецкая область,Липецк,Рестораны,,,Пивной Ковчег,"Титова, 5, Липецк 398043 Россия",52.56232,39.50731
6189293,2020-12-15,Липецкая область,Липецк,Рестораны,,,Лира,"Карла Маркса, 2, Липецк 398059 Россия",52.60455,39.59868
6189299,2020-12-15,Липецкая область,Липецк,Рестораны,,,Лира,"Петра Смородина, 1а, Липецк 398046 Россия",52.59321,39.54019
6189320,2020-12-15,Липецкая область,Липецк,Рестораны,,Фастфуд,Минутка,"Заводская площадь, 3Б, Липецк 398007 Россия",52.63444,39.66007
6189301,2020-12-15,Липецкая область,Липецк,Рестораны,,,Мангал Сити,"Катукова, 26а, Липецк 398036 Россия",52.58053,39.53395
6189300,2020-12-15,Липецкая область,Липецк,Рестораны,,Фастфуд,Айс,"Белана, 10, Липецк 398036 Россия",52.58468,39.50712
6189324,2020-12-15,Липецкая область,Липецк,Рестораны,,,Олимп,"Фрунзе, 11, Липецк 398059 Россия",52.60635,39.59282
8351664,2020-12-15,Липецкая область,Липецк,Рестораны,,"Бар,Паб",Золотая Миля,"Белана, 18, Липецк 398004 Россия",52.58468,39.50712
6189328,2020-12-15,Липецкая область,Липецк,Рестораны,,,Аньшань,"Гагарина, 133, Липецк 398043 Россия",52.61844,39.61644
6189334,2020-12-15,Липецкая область,Липецк,Рестораны,,Фастфуд,Погребок,"Вермишева, 2, Липецк 398035 Россия",52.60417,39.5365
6189335,2020-12-15,Липецкая область,Липецк,Рестораны,,Фастфуд,Пятачок,"6 Гвардейской Дивизии, 9, Липецк 398006 Россия",52.54363,39.57762
6189331,2020-12-15,Липецкая область,Липецк,Рестораны,,,Пещера,"Суворова, 28, Липецк 398017 Россия",52.58139,39.61513
6189329,2020-12-15,Липецкая область,Липецк,Рестораны,,,Оазис,"Баумана, 214, Липецк 398026 Россия",52.65448,39.68924
6189225,2020-12-15,Липецкая область,Липецк,Рестораны,,,АНИ,"Моршанская, ст6, Липецк 398908 Россия",52.52846,39.80329
6189218,2020-12-15,Липецкая область,Липецк,Рестораны,,,АвтоПицца,"Меркулова, 10а, Липецк 398046 Россия",52.59082,39.54623
6189336,2020-12-15,Липецкая область,Липецк,Рестораны,,,Распутье,"Юношеская, 45, Липецк 398902 Россия",52.57791,39.47655
6189230,2020-12-15,Липецкая область,Липецк,Рестораны,,,Бавариус,"Победы проспект, 47, Липецк 398024 Россия",52.60199,39.57224
8351565,2020-12-15,Липецкая область,Липецк,Рестораны,,"Бар,Паб",Зальцбург,"Писарева, 8а, Липецк 398029 Россия",52.53302,39.74937
8107223,2020-12-15,Липецкая область,Липецк,Рестораны,,Кафе,Mone,"ул. Зегеля, 23, Липецк 398050 Россия",52.61053,39.60082
6189228,2020-12-15,Липецкая область,Липецк,Рестораны,,Фастфуд,Аэлита,"Филипченко, 16, Липецк 398035 Россия",52.60522,39.54385
6189237,2020-12-15,Липецкая область,Липецк,Рестораны,,Фастфуд,Винный погребок,"Металлургов площадь, 3, Липецк 398005 Россия",52.57152,39.62176
6189233,2020-12-15,Липецкая область,Липецк,Рестораны,,Паб,Берлога,"Циолковского, 26а, Липецк 398043 Россия",52.61708,39.54828
6189250,2020-12-15,Липецкая область,Липецк,Рестораны,,Фастфуд,Горизонт 2000,"Победы проспект, 89, Липецк 398046 Россия",52.58559,39.54899
6189247,2020-12-15,Липецкая область,Липецк,Рестораны,,Фастфуд,Верба,"Елецкая, 71а, Липецк 398020 Россия",52.62106,39.62347
6189251,2020-12-15,Липецкая область,Липецк,Рестораны,,,Десертино,"Титова, 10, Липецк 398032 Россия",52.62042,39.55603
6189258,2020-12-15,Липецкая область,Липецк,Рестораны,,Фастфуд,Звездочка-К,"Краснозаводская, 4, Липецк 398006 Россия",52.54508,39.57695
8345204,2020-12-15,Липецкая область,Липецк,Рестораны,,,Бульbar,"Замятина, 3, Липецк 398055 Россия",52.60478,39.50065
6189252,2020-12-15,Липецкая область,Липецк,Рестораны,,,АБТ,"Ленина, 11, Липецк 398050 Россия",52.60973,39.60182
6744777,2020-12-15,Липецкая область,Липецк,Рестораны,,Паб,Пивбург,"Терешковой, 18, Липецк 398043 Россия",52.62171,39.56761
6743181,2020-12-15,Липецкая область,Липецк,Рестораны,,Паб,Др.Хмель,"Геологическая, 2Б, Липецк 398902 Россия",52.58059,39.47685
6189259,2020-12-15,Липецкая область,Липецк,Рестораны,,Фастфуд,Золотое Кольцо,"15-й микрорайон, 17, Липецк 398058 Россия",52.59732,39.54877
6744773,2020-12-15,Липецкая область,Липецк,Рестораны,,Паб,ПивБарин,"Детская, 13а Сырский, Липецк 398902 Россия",52.58942,39.53597
20089463,2020-12-15,Липецкая область,Липецк,Рестораны,,,Mybox,"ул. Катукова, 11, Липецк 398004 Россия",52.58062,39.52725
6744799,2020-12-15,Липецкая область,Липецк,Рестораны,,"Бар,Паб",Пит-стоп,"Бунина, 20, Липецк 398036 Россия",52.58396,39.519505
8351458,2020-12-15,Липецкая область,Липецк,Рестораны,,,Забава,"60 лет СССР проспект, вл. 36, Липецк 398055 Россия",52.58446,39.5425
8535040,2020-12-15,Липецкая область,Липецк,Рестораны,,"Бар,Паб",Хмельбург,"ул. Желябова, д. 16, Липецк 398050 Россия",52.61257,39.60453
8346593,2020-12-15,Липецкая область,Липецк,Рестораны,,"Бар,Паб",Гаштет,"Космонавтов, 98, Липецк 398042 Россия",52.61791,39.58238
8351388,2020-12-15,Липецкая область,Липецк,Рестораны,,"Бар,Паб",Янтарный Двор,"Терешковой, 5/1, Липецк 398016 Россия",52.62171,39.56761
20089346,2020-12-15,Липецкая область,Липецк,Рестораны,,,Mybox,"улица Космонавтов, 28, Липецк 398016 Россия",52.61725,39.569866
8562204,2020-12-15,Липецкая область,Липецк,Рестораны,,"Бар,Паб",Пив & ко,"ул. Славянова, д. 1, Липецк 398055 Россия",52.60633,39.50595
8350033,2020-12-15,Липецкая область,Липецк,Рестораны,,,"Столовая на Ангарской, вл. 35","Ангарская, вл. 35, Липецк 398902 Россия",52.58345,39.47802
20089349,2020-12-15,Липецкая область,Липецк,Рестораны,,,Mybox,"ул. Гагарина, 100Б, Липецк 398016 Россия",52.6231,39.575268
20089348,2020-12-15,Липецкая область,Липецк,Рестораны,,,Mybox,"ул. Студёновская, 124а, Липецк 398007 Россия",52.629337,39.649788
8348402,2020-12-15,Липецкая область,Липецк,Рестораны,,,Околица,"Стаханова, 65, Липецк 398004 Россия",52.59613,39.53492
8562235,2020-12-15,Липецкая область,Липецк,Рестораны,,,Пивной бар,"ул. Стаханова, д. 22, Липецк 398046 Россия",52.59613,39.53492
8345056,2020-12-15,Липецкая область,Липецк,Рестораны,,,Бремен,"Жуковского, 4, Липецк 398006 Россия",52.54205,39.58007
8345057,2020-12-15,Липецкая область,Липецк,Рестораны,,"Бар,Паб",Бриз,"Победы проспект, 128, Липецк 398036 Россия",52.58096,39.53888
6744512,2020-12-15,Липецкая область,Липецк,Рестораны,,Паб,Мир пива,"Неделина, 16, Липецк 398059 Россия",52.59772,39.60326
8347881,2020-12-15,Липецкая область,Липецк,Рестораны,,,Маркетсервис,"Зои Космодемьянской, 224, Липецк 398005 Россия",52.58944,39.61802
8351384,2020-12-15,Липецкая область,Липецк,Рестораны,,"Бар,Паб",Янтарная Слеза,"Плеханова, 50, Липецк 398050 Россия",52.61196,39.59899
8344703,2020-12-15,Липецкая область,Липецк,Рестораны,,"Бар,Паб",Бир Мир,"Космонавтов, 38, Липецк 398043 Россия",52.61791,39.58238
8344629,2020-12-15,Липецкая область,Липецк,Рестораны,,"Бар,Паб",Барон-М,"Агрономическая, 17, Липецк 398037 Россия",52.63281,39.54665
12517168,2020-12-15,Липецкая область,Липецк,Рестораны,,,Между булок,"Пр. 60 лет СССР, 34 А, Липецк 398046 Россия",52.58462,39.54125
17728570,2020-12-15,Липецкая область,Липецк,Рестораны,,,Гастрономический пивной ресторан GRAND,"ул. Терешковой, 13Б, Липецк 398002 Россия",52.61396,39.571056
8344676,2020-12-15,Липецкая область,Липецк,Рестораны,,,Бавария,"Победы проспект, 106а, Липецк 398046 Россия",52.58559,39.54899
8344635,2020-12-15,Липецкая область,Липецк,Рестораны,,,Барсук,"Водопьянова, 21Б стр. 1, Липецк 398046 Россия",52.58836,39.54952
8344709,2020-12-15,Липецкая область,Липецк,Рестораны,,"Бар,Паб",Бир Таун,"Теперика, 7а, Липецк 398004 Россия",52.58347,39.52184
6744532,2020-12-15,Липецкая область,Липецк,Рестораны,,"Бар,Паб",На троих,"Победы проспект, 116, Липецк 398036 Россия",52.58096,39.53888
8344730,2020-12-15,Липецкая область,Липецк,Рестораны,,"Бар,Паб",Биртаун,"Мира проспект, 9, Липецк 398005 Россия",52.59109,39.61616
8550788,2020-12-15,Липецкая область,Липецк,Рестораны,,,Молодежное,"Мира проспект, д. 3Б, Липецк 398005 Россия",52.59109,39.61616
8351678,2020-12-15,Липецкая область,Липецк,Рестораны,,"Бар,Паб",Золотой Хмель,"Ворошилова, 3, Липецк 398001 Россия",52.6038,39.58997
7277419,2020-12-15,Липецкая область,Липецк,Рестораны,,,Бульвар,"ул. Неделина, д. 61, Липецк 398059 Россия",52.59772,39.60326
8351181,2020-12-15,Липецкая область,Липецк,Рестораны,,,Витаминка,"Московская, 6/1, Липецк 398055 Россия",52.60799,39.51431
12731662,2020-12-15,Липецкая область,Липецк,Рестораны,,,СушиВёсла,"ул. Катукова, 51, Липецк 398036 Россия",52.58053,39.53395
20058632,2020-12-15,Липецкая область,Липецк,Рестораны,,,Фабрика Кухня Пицца на Первомайской,"ул. П.И.Смородина, д. 8а, Липецк 398046 Россия",52.592747,39.53703
8348013,2020-12-15,Липецкая область,Липецк,Рестораны,,,Металлобаза,"Ковалёва, 101, Липецк 398007 Россия",52.63562,39.64848
20089354,2020-12-15,Липецкая область,Грязи,Рестораны,,,Mybox,"ул. 30-летия Победы,  61А, Грязи 399056 Россия",52.59798,39.52998
19271677,2020-12-15,Липецкая область,Липецк,Рестораны,,Кафе,Coffee BLACK PEP,"Льва Толстого,  1, Липецк 398001 Россия",52.60594,39.59219
6484366,2020-12-15,Липецкая область,с. Капитанщино,Рестораны,,,Азалия,"Советская, 53, с. Капитанщино 399171 Россия",52.85084,39.79463
15147873,2020-12-15,Липецкая область,Грязи,Рестораны,,,Пикник,"30 лет Победы, Грязи 399056 Россия",52.49944,39.94996
8345963,2020-12-15,Липецкая область,Липецк,Рестораны,,"Бар,Паб",Де Бирс,"Невского, 27, Липецк 398005 Россия",52.58133,39.6215
8347524,2020-12-15,Липецкая область,Липецк,Рестораны,,"Бар,Паб",Лейберинт,"Терешковой, 35Б, Липецк 398002 Россия",52.62171,39.56761
8345964,2020-12-15,Липецкая область,Липецк,Рестораны,,"Бар,Паб",Де Бирс,"40 лет Октября, 4, Липецк 398007 Россия",52.63541,39.65791
21468487,2020-12-15,Липецкая область,Липецк,Рестораны,,,Усадьба,"садовое товарищество Спутник, 1-й массив, 8, Липецк Россия",52.618916,39.573647
6190070,2020-12-15,Липецкая область,Липецк,Рестораны,,Фастфуд,Юнис,"Циолковского, 5/1, Липецк 398032 Россия",52.61708,39.54828
8344420,2020-12-15,Липецкая область,Липецк,Рестораны,,,Автолагман,"Белана, 17а, Липецк 398004 Россия",52.58468,39.50712
8347632,2020-12-15,Липецкая область,Липецк,Рестораны,,,Линдерхоф,"Гагарина, 73, Липецк 398016 Россия",52.61844,39.61644
8350785,2020-12-15,Липецкая область,Липецк,Рестораны,,"Бар,Паб",Трюм,"Зои Космодемьянской, 2Б, Липецк 398005 Россия",52.58944,39.61802
8347645,2020-12-15,Липецкая область,Липецк,Рестораны,,,Липецк-Уаз,"Московская, вл. 8в, Липецк 398042 Россия",52.60799,39.51431
8349257,2020-12-15,Липецкая область,Липецк,Рестораны,,,Робуста,"Петра Смородина, 13а, Липецк 398046 Россия",52.59321,39.54019
21511740,2020-12-15,Липецкая область,Липецк,Рестораны,,,СушиВесла,"улица Стаханова, 36, Липецк 398004 Россия",52.585655,39.518948
8348796,2020-12-15,Липецкая область,Липецк,Рестораны,,,Пивной Бар,"60 лет СССР проспект, 37 корп. 1, Липецк 398036 Россия",52.58446,39.5425
8347688,2020-12-15,Липецкая область,Липецк,Рестораны,,,Липецкий Бавар,"Победы проспект, 3, Липецк 398024 Россия",52.60199,39.57224
21211520,2020-12-15,Липецкая область,Липецк,Рестораны,,Кафе,Карлсон,"Ленина, д.11, Липецк 398050 Россия",52.612804,39.60591
8350888,2020-12-15,Липецкая область,Липецк,Рестораны,,,У Полины,"Асфальтная, 2, Липецк 398901 Россия",52.55831,39.73147
8350885,2020-12-15,Липецкая область,Липецк,Рестораны,,"Бар,Паб",У Петра,"Октябрьская, 28, Липецк 398059 Россия",52.60128,39.60113
6744339,2020-12-15,Липецкая область,Липецк,Рестораны,,Паб,Криница,"Победы проспект, 112а, Липецк 398046 Россия",52.58559,39.54899
22885221,2020-12-15,Липецкая область,Липецк,Рестораны,,,Дружба Bar&Kitchen,"Октябрьская улица, 53, Липецк 398059 Россия",52.601746,39.596825
8348748,2020-12-15,Липецкая область,Липецк,Рестораны,,"Бар,Паб",Пивбург,"Петра Смородина, 1а, Липецк 398046 Россия",52.59321,39.54019
8351665,2020-12-15,Липецкая область,Липецк,Рестораны,,"Бар,Паб",Золотая Корова,"Боевой проезд, 34, Липецк 398037 Россия",52.62673,39.5595
21329797,2020-12-15,Липецкая область,Липецк,Рестораны,,,Reni,"Стаханова, 59, Липецк 398004 Россия",52.580547,39.51386
12512710,2020-12-15,Липецкая область,Липецк,Рестораны,,,"Кондитерская кафе ""Гретхен""","Проспект Победы, 128, Липецк Россия",52.60199,39.57224
8346182,2020-12-15,Липецкая область,Липецк,Рестораны,,"Бар,Паб",Два Ерша,"Ферросплавная, 2а, Липецк 398005 Россия",52.57547,39.62447
6744383,2020-12-15,Липецкая область,Липецк,Рестораны,,"Бар,Паб",Кружка,"Бородинская, 47а, Липецк 398026 Россия",52.63923,39.6649
8346188,2020-12-15,Липецкая область,Липецк,Рестораны,,"Бар,Паб",Два Товарища,"Водопьянова, 37, Липецк 398046 Россия",52.58836,39.54952
6743047,2020-12-15,Липецкая область,Липецк,Рестораны,,Паб,Бавария,"Циолковского, 5/1, Липецк 398032 Россия",52.61708,39.54828
8348415,2020-12-15,Липецкая область,Липецк,Рестораны,,,Оливия,"Космонавтов, 104, Липецк 398042 Россия",52.61791,39.58238
6743045,2020-12-15,Липецкая область,Липецк,Рестораны,,Паб,Бавария,"Московская, 105а, Липецк 398055 Россия",52.60799,39.51431
6744661,2020-12-15,Липецкая область,Липецк,Рестораны,,Паб,Пив & ко,"Белана, 5, Липецк 398036 Россия",52.58468,39.50712
8348407,2020-12-15,Липецкая область,Липецк,Рестораны,,"Бар,Паб",Оktoberfest,"Вермишева, 4а, Липецк 398035 Россия",52.60417,39.5365
7177087,2020-12-15,Липецкая область,Липецк,Рестораны,,Паб,Пиво-Во,"ул. Космонавтов, д. 41/1, Липецк 398035 Россия",52.60833,39.54814
8351553,2020-12-15,Липецкая область,Липецк,Рестораны,,,"Закусочная на ул. Меркулова, 16А","Меркулова, 16а, Липецк 398036 Россия",52.59082,39.54623
8349742,2020-12-15,Липецкая область,Липецк,Рестораны,,"Бар,Паб",Шустер,"Водопьянова, 14, Липецк 398058 Россия",52.58836,39.54952
8346524,2020-12-15,Липецкая область,Липецк,Рестораны,,,Фри Зон,"Славянова, 1, Липецк 398055 Россия",52.60633,39.50595
8351308,2020-12-15,Липецкая область,Липецк,Рестораны,,,Встреча,"Металлургов площадь, 5, Липецк 398005 Россия",52.57152,39.62176
6744766,2020-12-15,Липецкая область,Липецк,Рестораны,,Паб,Пивбург,"Неделина, 61, Липецк 398059 Россия",52.59772,39.60326
20089454,2020-12-15,Липецкая область,Липецк,Рестораны,,,Mybox,"ул. Космонавтов, 98, Липецк 398042 Россия",52.60831,39.54571
8349736,2020-12-15,Липецкая область,Липецк,Рестораны,,"Бар,Паб",Штаб Квартира,"Студёновская, 195, Липецк 398007 Россия",52.618366,39.616646
14169369,2020-12-15,Липецкая область,Липецк,Рестораны,,,БлинТаймз,"ул.Студёновская 184А ТЦ Радуга, 1 этаж, Липецк 398007 Россия",52.62533,39.63916
3568485,2020-12-15,Липецкая область,Липецк,Рестораны,,Кафе,Мокко,"ул. Терешковой, 6, Липецк 398016 Россия",52.60876,39.5721
8351516,2020-12-15,Липецкая область,Липецк,Рестораны,,,Закусочная,"60 лет СССР проспект, 2, Липецк 398046 Россия",52.58446,39.5425
6189185,2020-12-15,Липецкая область,Липецк,Рестораны,,"Бар,Паб",4 сезона,"Тельмана, 19, Липецк 398002 Россия",52.61854,39.60103
6189198,2020-12-15,Липецкая область,Липецк,Рестораны,,Кафе,Coffee On Your Way,"60 лет СССР проспект, 34, Липецк 398046 Россия",52.58462,39.54125
6189194,2020-12-15,Липецкая область,Липецк,Рестораны,,,7я,"Ангарская, 23а, Липецк 398902 Россия",52.58267,39.48036
6189261,2020-12-15,Липецкая область,Липецк,Рестораны,,Фастфуд,Горница,"Победы проспект, 72, Липецк 398024 Россия",52.60199,39.57224
20089499,2020-12-15,Липецкая область,Липецк,Рестораны,,,Mybox,"просп. 60 лет СССР, 34, Липецк 398036 Россия",52.59226,39.525387
6189215,2020-12-15,Липецкая область,Липецк,Рестораны,,Фастфуд,Азеррос,"15-й микрорайон, 8, Липецк 398058 Россия",52.59732,39.54877
6189212,2020-12-15,Липецкая область,Липецк,Рестораны,,,Sushi-Party,"Советская, 64 ст1, Липецк 398001 Россия",52.65679,39.72761
6189266,2020-12-15,Липецкая область,Липецк,Рестораны,,,Камin,"Октябрьская, 53 ст2, Липецк 398059 Россия",52.60128,39.60113
6189270,2020-12-15,Липецкая область,Липецк,Рестораны,,,Карусель,"Водопьянова, 14, Липецк 398058 Россия",52.58836,39.54952
6189263,2020-12-15,Липецкая область,Липецк,Рестораны,,,Кабачок,"Меркулова, 14Б, Липецк 398036 Россия",52.59082,39.54623
6189262,2020-12-15,Липецкая область,Липецк,Рестораны,,Фастфуд,Изба охотника,"Студёновская, 19, Липецк 398020 Россия",52.618366,39.616646
6189281,2020-12-15,Липецкая область,Липецк,Рестораны,,,Корона,"50 лет НЛМК, 5а/1, Липецк 398059 Россия",52.58384,39.57721
6189278,2020-12-15,Липецкая область,Липецк,Рестораны,,,Ковчег,"ул. Доватора, 12, Липецк 398024 Россия",52.59677,39.56322
6189271,2020-12-15,Липецкая область,Липецк,Рестораны,,,Карусель,"Космонавтов, 54Б, Липецк 398032 Россия",52.61791,39.58238
19950626,2020-12-15,Липецкая область,Липецк,Рестораны,,,Тепло,"Желябова, 7, Липецк 398050 Россия",52.612732,39.602757
6189284,2020-12-15,Липецкая область,Липецк,Рестораны,,,Леда,"Интернациональная, 42, Липецк 398020 Россия",52.61183,39.59999
6189286,2020-12-15,Липецкая область,Липецк,Рестораны,,Кафе,Кофе Place,"Победы проспект, 29, Липецк 398024 Россия",52.60199,39.57224
6189282,2020-12-15,Липецкая область,Липецк,Рестораны,,Кафе,Coffee On Your Way,"Петра Смородина, 15, Липецк 398046 Россия",52.59321,39.54019
6189283,2020-12-15,Липецкая область,Липецк,Рестораны,,,Клен,"40 лет Октября, 3, Липецк 398007 Россия",52.63541,39.65791
6189289,2020-12-15,Липецкая область,Липецк,Рестораны,,,Л-Тойс,"Победы проспект, 92, Липецк 398024 Россия",52.60199,39.57224
6189292,2020-12-15,Липецкая область,Липецк,Рестораны,,Фастфуд,Лик,"Гагарина, 161, Липецк 398032 Россия",52.61844,39.61644
6189339,2020-12-15,Липецкая область,Липецк,Рестораны,,,Под Куполом,"Московская, 75а, Липецк 398042 Россия",52.60799,39.51431
6189337,2020-12-15,Липецкая область,Липецк,Рестораны,,Фастфуд,Почтовый дворик,"Зегеля, 2, Липецк 398050 Россия",52.61053,39.60082
6189342,2020-12-15,Липецкая область,Липецк,Рестораны,,Фастфуд,Пивная таверна,"60 лет СССР проспект, 18г, Липецк 398046 Россия",52.58446,39.5425
6189343,2020-12-15,Липецкая область,Липецк,Рестораны,,Фастфуд,Ромашка,"Петра Смородина, 12в, Липецк 398046 Россия",52.59321,39.54019
6189347,2020-12-15,Липецкая область,Липецк,Рестораны,,Фастфуд,Радуга,"Победы проспект, 59а, Липецк 398024 Россия",52.60199,39.57224
6189344,2020-12-15,Липецкая область,Липецк,Рестораны,,Фастфуд,Роса,"9 Мая, 9а, Липецк 398017 Россия",52.57406,39.6173
6189348,2020-12-15,Липецкая область,Липецк,Рестораны,,,Садко,"Моршанская, 7а, Липецк 398908 Россия",52.528454,39.80226
20089514,2020-12-15,Липецкая область,Липецк,Рестораны,,,Mybox,"улица Катукова, 51, Липецк 398004 Россия",52.5923,39.504105
6189360,2020-12-15,Липецкая область,Липецк,Рестораны,,,Суши мания,"Белана, 26, Липецк 398036 Россия",52.58468,39.50712
6189361,2020-12-15,Липецкая область,Липецк,Рестораны,,,Тачки,"Неделина, 1, Липецк 398059 Россия",52.59745,39.60342
6189364,2020-12-15,Липецкая область,Липецк,Рестораны,,,Тифлис,"ул. Октябрьская, 6, Липецк 398059 Россия",52.60128,39.60113
6189374,2020-12-15,Липецкая область,Липецк,Рестораны,,Фастфуд,Трактиръ,"Мира площадь, 4в, Липецк 398005 Россия",52.59109,39.61616
6189372,2020-12-15,Липецкая область,Липецк,Рестораны,,Фастфуд,У Люси,"Космонавтов, 88, Липецк 398042 Россия",52.61791,39.58238
6189370,2020-12-15,Липецкая область,Липецк,Рестораны,,Фастфуд,У Василича,"Шерстобитова, 20, Липецк 398036 Россия",52.58237,39.51037
6743725,2020-12-15,Липецкая область,Липецк,Рестораны,,"Бар,Паб",Бар на Ленинградская,"Ленинградская, 12, Липецк 398006 Россия",52.54039,39.58263
6189254,2020-12-15,Липецкая область,Липецк,Рестораны,,Фастфуд,Дуэт,"Гагарина, 117а, Липецк 398043 Россия",52.61844,39.61644
8348683,2020-12-15,Липецкая область,Липецк,Рестораны,,"Бар,Паб",Пиff Бaza,"60 лет СССР проспект, 18Б, Липецк 398046 Россия",52.58446,39.5425
6189378,2020-12-15,Липецкая область,Липецк,Рестораны,,,Фарт,"Гагарина, 15, Липецк 398020 Россия",52.61844,39.61644
8348777,2020-12-15,Липецкая область,Липецк,Рестораны,,"Бар,Паб",Пивная Лавка,"Студёновская, 195, Липецк 398007 Россия",52.618366,39.616646
8441363,2020-12-15,Липецкая область,Липецк,Рестораны,,,25Часов,"Победы проспект, д. 128, Липецк 398036 Россия",52.58096,39.53888
6745184,2020-12-15,Липецкая область,Липецк,Рестораны,,"Бар,Паб",Фора,"Стаханова, 49а, Липецк Россия",52.59613,39.53492
8348798,2020-12-15,Липецкая область,Липецк,Рестораны,,,"Пивной Бар на ул. Ушинского, 9","Ушинского, 9, Липецк 398007 Россия",52.63693,39.66159
8348786,2020-12-15,Липецкая область,Липецк,Рестораны,,"Бар,Паб",Пивной Арсенал,"Металлургов площадь, 7а, Липецк 398005 Россия",52.57152,39.62176
8347199,2020-12-15,Липецкая область,Липецк,Рестораны,,"Бар,Паб",Хмельнофф,"Меркулова, 16а/1, Липецк 398036 Россия",52.59082,39.54623
8348789,2020-12-15,Липецкая область,Липецк,Рестораны,,"Бар,Паб",Пивной Арсенал,"Мира проспект, 14, Липецк 398005 Россия",52.59109,39.61616
8350544,2020-12-15,Липецкая область,Липецк,Рестораны,,,Таверна,"Вермишева, 2, Липецк 398035 Россия",52.60417,39.5365
6189588,2020-12-15,Липецкая область,Липецк,Рестораны,,,Олюра,"Московская, 149Б, Липецк 398055 Россия",52.60799,39.51431
8350679,2020-12-15,Липецкая область,Липецк,Рестораны,,,Тайм Бар,"Есенина бульвар, 5, Липецк 398036 Россия",52.58565,39.53093
8344195,2020-12-15,Липецкая область,Липецк,Рестораны,,"Бар,Паб",Алекста,"Шерстобитова, 20, Липецк 398027 Россия",52.58237,39.51037
6185061,2020-12-15,Липецкая область,Липецк,Рестораны,,,Алмаз,"Шубина бульвар, 2а, Липецк 398036 Россия",52.5899,39.52389
6185064,2020-12-15,Липецкая область,Липецк,Рестораны,,,Лената,"Энергостроителей, 7а, Липецк 398908 Россия",52.61147,39.60352
8344202,2020-12-15,Липецкая область,Липецк,Рестораны,,,Али Баба,"Бехтеева, 10, Липецк 398055 Россия",52.53901,39.5945
6185063,2020-12-15,Липецкая область,Липецк,Рестораны,,,Моменто,"Зои Космодемьянской, 1а, Липецк 398005 Россия",52.58944,39.61802
8347409,2020-12-15,Липецкая область,Липецк,Рестораны,,"Бар,Паб",Креветка,"Терешковой, 30, Липецк 398043 Россия",52.62171,39.56761
8345825,2020-12-15,Липецкая область,Липецк,Рестораны,,,Кофе Брейк,"Советская, 66, Липецк 398001 Россия",52.65679,39.72761
8349014,2020-12-15,Липецкая область,Липецк,Рестораны,,"Бар,Паб",Пражечка,"Гагарина, 137, Липецк 398043 Россия",52.61844,39.61644
8349007,2020-12-15,Липецкая область,Липецк,Рестораны,,"Бар,Паб",Прага,"Циолковского, 38а, Липецк 398043 Россия",52.61708,39.54828
4481094,2020-12-15,Липецкая область,Липецк,Рестораны,,,Гуд Фуд,"ул. Шерстобитова,  20, Липецк 398027 Россия",52.58237,39.51037
20089470,2020-12-15,Липецкая область,Липецк,Рестораны,,,Mybox,"ул. Космодемьянской,  8, Липецк 398041 Россия",52.588608,39.62113
10820675,2020-12-15,Липецкая область,Задонск,Рестораны,,"Паб,Гастропаб",Aura Craft Pub,"ул. Крупской, 55, Задонск 399200 Россия",52.386917,38.921425
6189183,2020-12-15,Липецкая область,Копцевы Хутора,Рестораны,,,Эдем,"Ксении Константиновой, 1, Копцевы Хутора 398501 Россия",52.68272,39.4651
10841404,2020-12-15,Липецкая область,Липецк,Рестораны,,Паб,Стаханов бар,"ул. Шуминского, 1A, Липецк Россия",52.58456,39.51766
13314943,2020-12-15,Липецкая область,Липецк,Рестораны,,,Хмель Хаус,"ул. Максима Горького д. 7а, Липецк 398001 Россия",52.60575,39.583874
13324334,2020-12-15,Липецкая область,Липецк,Рестораны,,,Тайга Ресторан-Пивоварня,"Минская, 49 а, Липецк 398902 Россия",52.57076,39.513702
6744753,2020-12-15,Липецкая область,Липецк,Рестораны,,Паб,Пивной причал,"Московская, 85, Липецк 398055 Россия",52.60799,39.51431
15069371,2020-12-15,Липецкая область,Липецк,Рестораны,,Бар,Томато,"площадь Победы, 3a, Липецк 398059 Россия",52.60476,39.57216
12392688,2020-12-15,Липецкая область,с. Казинкa,Рестораны,,,Таверна Боцман,"Балашовское участковое лесничество, квартал 46 База отдыха Бригантина, с. Казинкa 398908 Россия",52.563805,39.76956
14921757,2020-12-15,Липецкая область,Чаплыгин,Рестораны,,,Наши-суши,"Советская,  д. 36, Чаплыгин 399900 Россия",53.23403,39.98527
6189338,2020-12-15,Липецкая область,Липецк,Рестораны,,Фастфуд,Русский аппетит,"Победы проспект, 53, Липецк 398024 Россия",52.60199,39.57224
16884485,2020-12-15,Липецкая область,Липецк,Рестораны,,Бар,Томато,"Хорошавина, 1, Липецк 398004 Россия",52.58454,39.51703
6189362,2020-12-15,Липецкая область,Липецк,Рестораны,,,Таверна у Портоса,"ул. Бунина, 15, Липецк 398004 Россия",52.584003,39.519444
7213341,2020-12-15,Липецкая область,Липецк,Рестораны,,,Сударь,"Советская, 7, Липецк 398001 Россия",52.65679,39.72761
6189398,2020-12-15,Липецкая область,Липецк,Рестораны,,,Шелковый путь,"60 лет СССР проспект, 34, Липецк 398046 Россия",52.58446,39.5425
6189318,2020-12-15,Липецкая область,Липецк,Рестораны,,,Моrе суши,"Фрунзе, 8, Липецк 398059 Россия",52.60635,39.59282
17725177,2020-12-15,Липецкая область,Липецк,Рестораны,,Бар,ТОМАТО,"Петра Смородина, 13а, Липецк 398046 Россия",52.588223,39.536304
6189208,2020-12-15,Липецкая область,Липецк,Рестораны,,Фастфуд,RusBurger,"Советская, 66, Липецк 398001 Россия",52.65679,39.72761
8562167,2020-12-15,Липецкая область,Липецк,Рестораны,,"Бар,Паб",Пит-Стоп,"ул. Московская, д. 85, Липецк 398055 Россия",52.60799,39.51431
6189191,2020-12-15,Липецкая область,Липецк,Рестораны,,,Center,"Петра Великого площадь, 6, Липецк 398059 Россия",52.60219,39.60593
6189346,2020-12-15,Липецкая область,Липецк,Рестораны,,,Поляна,"60 лет СССР проспект, ст28а, Липецк 398046 Россия",52.58446,39.5425
6189229,2020-12-15,Липецкая область,Липецк,Рестораны,,Паб,Аленушка,"Ушинского, 9, Липецк 398007 Россия",52.63693,39.66159
6189210,2020-12-15,Липецкая область,Липецк,Рестораны,,,Sushi Ostrov,"Титова, 10, Липецк 398032 Россия",52.62042,39.55603
6189221,2020-12-15,Липецкая область,Липецк,Рестораны,,,Аниме,"Советская, 66, Липецк 398001 Россия",52.60491,39.59446
6189223,2020-12-15,Липецкая область,Липецк,Рестораны,,,Апельсин,"Победы площадь, 1, Липецк 398001 Россия",52.60199,39.57224
6189257,2020-12-15,Липецкая область,Липецк,Рестораны,,,Звездный,"Терешковой, 13, Липецк 398002 Россия",52.62171,39.56761
6189352,2020-12-15,Липецкая область,Липецк,Рестораны,,,Спар,"Космонавтов, 14, Липецк 398016 Россия",52.61791,39.58238
6189314,2020-12-15,Липецкая область,Липецк,Рестораны,,,Никольское,"Барашева, 1, Липецк 398059 Россия",52.60083,39.58743
6189345,2020-12-15,Липецкая область,Липецк,Рестораны,,,Садко,"Петра Смородина, 13а, Липецк 398046 Россия",52.59321,39.54019
6539338,2020-12-15,Липецкая область,Липецк,Рестораны,,,Ясуми,"ул. Космонавтов, д. 22, Липецк 398016 Россия",52.61791,39.58238
8515382,2020-12-15,Липецкая область,Липецк,Рестораны,,,Дольче,"ул. Ворошилова, д. 3 вход с улицы Первомайская, Липецк 398001 Россия",52.6038,39.58997
6745213,2020-12-15,Липецкая область,Липецк,Рестораны,,Паб,Хмель да Солод,"Гагарина, 15, Липецк 398020 Россия",52.61844,39.61644
6189385,2020-12-15,Липецкая область,Липецк,Рестораны,,,Узбечка,"Космонавтов, 98а, Липецк 398042 Россия",52.61791,39.58238
8344697,2020-12-15,Липецкая область,Липецк,Рестораны,,"Бар,Паб",Бир Холл,"Терешковой, 35Б, Липецк 398002 Россия",52.62171,39.56761
7213340,2020-12-15,Липецкая область,Липецк,Рестораны,,Кафе,Башня,"Балмочных, 11, Липецк 398002 Россия",52.61752,39.58654
7277477,2020-12-15,Липецкая область,Липецк,Рестораны,,,Шоколад,"ул. Папина, д. 6, Липецк 398024 Россия",52.59452,39.55399
6189395,2020-12-15,Липецкая область,Липецк,Рестораны,,,Яки-Тори,"Советская, 66, Липецк 398001 Россия",52.65679,39.72761
8471607,2020-12-15,Липецкая область,Липецк,Рестораны,,,Место встречи,"ул. Водопьянова, 17A, Липецк Россия",52.58836,39.54952
6744192,2020-12-15,Липецкая область,Липецк,Рестораны,,Паб,Жигули,"Неделина, 22, Липецк 398059 Россия",52.59745,39.60342
6189340,2020-12-15,Липецкая область,Липецк,Рестораны,,,Очагъ,"Гагарина, 107а, Липецк 398043 Россия",52.61844,39.61644
10821539,2020-12-15,Липецкая область,Липецк,Рестораны,,Кафе,7 Пятниц,"пр. 60-летия СССР, 34a, Липецк 398035 Россия",52.58438,39.53758
7184596,2020-12-15,Липецкая область,Липецк,Рестораны,,,Место встречи,"ул.Титова, 10 ТРЦ Москва, 3 эт., Липецк 398032 Россия",52.62043,39.5559
21200689,2020-12-15,Липецкая область,Липецк,Рестораны,,,TOLSTOY  Restobar,"Lva Tolstogo, 1a, Липецк 398001 Россия",52.6122,39.59812
4773189,2020-12-15,Липецкая область,Липецк,Рестораны,,,Дежавю,"ул. Терешковой, д. 26, Липецк 398043 Россия",52.61902,39.56737
15832052,2020-12-15,Липецкая область,Липецк,Рестораны,,,Пиратская бухта,"ул. Советская, 64 помещение №1, Липецк 398001 Россия",52.60457,39.57875
6189366,2020-12-15,Липецкая область,Липецк,Рестораны,,,Ташир,"Советская, 66, Липецк 398001 Россия",52.65679,39.72761
16813208,2020-12-15,Липецкая область,Липецк,Рестораны,,,Бургер Кинг,"50 Лет НЛМК, 4а, Липецк 398059 Россия",52.594116,39.594433
6189275,2020-12-15,Липецкая область,Липецк,Рестораны,,,Карусель,"Гагарина, 6, Липецк 398020 Россия",52.61844,39.61644
6189349,2020-12-15,Липецкая область,Липецк,Рестораны,,,Славянский,"Воронежское шоссе, 30, Липецк 398533 Россия",52.575325,39.53095
6189375,2020-12-15,Липецкая область,Липецк,Рестораны,,,Траян,"Петра Великого площадь, 1, Липецк 398001 Россия",52.60219,39.60593
8348481,2020-12-15,Липецкая область,Липецк,Рестораны,,,Овертайм,"Карла Маркса, 27, Липецк 398059 Россия",52.60455,39.59868
8703047,2020-12-15,Липецкая область,Липецк,Рестораны,,,Ресторан Роял,"Ул. Подгоренская, 14, Липецк 398532 Россия",52.55746,39.51474
16756397,2020-12-15,Липецкая область,Липецк,Рестораны,,,Аркадий пельмень-бар,"Меркулова,  10А, Липецк 398036 Россия",52.59082,39.54623
8346579,2020-12-15,Липецкая область,Липецк,Рестораны,,"Бар,Паб",Гамбринус,"Победы проспект, 8, Липецк 398024 Россия",52.60199,39.57224
6189240,2020-12-15,Липецкая область,Липецк,Рестораны,,,Буфетъ,"Петра Великого площадь, 1, Липецк 398001 Россия",52.60219,39.60593
15575858,2020-12-15,Липецкая область,Липецк,Рестораны,,Бар,Валерич,"Водопьянова,  17А, Липецк 398046 Россия",52.58836,39.54952
6189244,2020-12-15,Липецкая область,Липецк,Рестораны,,,Гриль-Хаус,"Студёновская, 124а, Липецк 398007 Россия",52.62606,39.64257
6744764,2020-12-15,Липецкая область,Липецк,Рестораны,,Паб,Пивной трактир,"Максима Горького, 26, Липецк 398001 Россия",52.60003,39.58543
6189273,2020-12-15,Липецкая область,Липецк,Рестораны,,,Классик,"Ленина, 23, Липецк 398050 Россия",52.60973,39.60182
12875018,2020-12-15,Липецкая область,Липецк,Рестораны,,,Cafe Fresh Club,"ул. Гагарина, 45A, Липецк 398002 Россия",52.61706,39.59605
6744695,2020-12-15,Липецкая область,Липецк,Рестораны,,Паб,Пивная таверна,"Ворошилова, 3, Липецк 398001 Россия",52.6038,39.58997
6189367,2020-12-15,Липецкая область,Липецк,Рестораны,,,Токио,"Советская, 66, Липецк 398001 Россия",52.65679,39.72761
10623276,2020-12-15,Липецкая область,Грязи,Рестораны,,,"СОЛО-ГРИЛЬ, кафе","Коммунальная улица, д. 11/5, Грязи 399300 Россия",52.48955,39.98369
6189576,2020-12-15,Липецкая область,Липецк,Рестораны,,,Гурманофф,"Первомайская, 59, Липецк 398059 Россия",52.60393,39.59874
6189371,2020-12-15,Липецкая область,Липецк,Рестораны,,,Трактир на Базарной,"Ворошилова, 1, Липецк 398001 Россия",52.6038,39.58997
10483586,2020-12-15,Липецкая область,Липецк,Рестораны,,,Генацвале,"ул. Зегеля, 23, Липецк 398050 Россия",52.61053,39.60082
6189775,2020-12-15,Липецкая область,Липецк,Рестораны,,,Коммерсант,"Плеханова площадь, 3, Липецк 398050 Россия",52.61197,39.59904
17622371,2020-12-15,Липецкая область,Тербуны,Рестораны,,,Family&Friends,"Московская, 41б, Тербуны 399540 Россия",52.14417,38.26721
6189280,2020-12-15,Липецкая область,Липецк,Рестораны,,,Компот,"Советская, 66 лит Б5, Липецк 398001 Россия",52.60491,39.59446
6189394,2020-12-15,Липецкая область,Липецк,Рестораны,,,Шашлычный двор,"60 лет СССР проспект, 37, Липецк 398036 Россия",52.58446,39.5425
6189272,2020-12-15,Липецкая область,Липецк,Рестораны,,,Ресторан Калипсо,"Советская, 7, Липецк 398001 Россия",52.6037,39.592487
9566238,2020-12-15,Липецкая область,Липецк,Рестораны,,,Лето Клаб,"ул. Кузнечная, 4Б, Липецк 398050 Россия",52.607895,39.59748
17338298,2020-12-15,Липецкая область,Липецк,Рестораны,,,Ботаник,"Первомайская, 80, Липецк 398059 Россия",52.60393,39.59874
8592457,2020-12-15,Липецкая область,Ленино,Рестораны,,,Ресторан Двин,Ленино Россия,52.519623,39.47043
6189267,2020-12-15,Липецкая область,Липецк,Рестораны,,,Карусель,"Гагарина, 35Б, Липецк 398002 Россия",52.61844,39.61644
13126202,2020-12-15,Липецкая область,Елец,Рестораны,,,Милано,"ул. Мира, д. 102, Елец 399770 Россия",52.60889,38.49784
13972948,2020-12-15,Липецкая область,Елец,Рестораны,,,Макао,"ул. Свердлова, д. 9, Елец 399770 Россия",52.62152,38.48149
6189373,2020-12-15,Липецкая область,Липецк,Рестораны,,,Траттория,"Плеханова, 37/6, Липецк 398050 Россия",52.61196,39.59899
7185367,2020-12-15,Липецкая область,Задонск,Рестораны,,,Кафе Дорожное,"ул. Коммуны, 15, Задонск Россия",52.39337,38.91449
8756785,2020-12-15,Липецкая область,Липецк,Рестораны,,,Magic Box,"ул. Папина, 3б, Липецк 398058 Россия",52.59303,39.552387
14184083,2020-12-15,Липецкая область,Липецк,Рестораны,,,Дорадо,"ул.М.Горького 7 Здание Хмель Хаус, Липецк 398001 Россия",52.60003,39.58543
10235250,2020-12-15,Липецкая область,с. Казинкa,Рестораны,,,Мюнхель,"ул. Восточная, 14, с. Казинкa Россия",52.538677,39.82614
11807640,2020-12-15,Липецкая область,Липецк,Рестораны,,,Mr. Money,"ул. Космонавтов, 54Б, Липецк 398032 Россия",52.61791,39.58238
7155323,2020-12-15,Липецкая область,с. Казинкa,Рестораны,,,Ресторан Чернышевой,"ул. Октябрьская, д. 23 ресторанно-гостиничный комплекс Чернышевой, с. Казинкa 399071 Россия",52.538704,39.824135
6189356,2020-12-15,Липецкая область,Липецк,Рестораны,,,Сладкая Фея,"Кривенкова, 23, Липецк 398036 Россия",52.593006,39.516968
7213342,2020-12-15,Липецкая область,Липецк,Рестораны,,,Ной,"Неделина, 14Д, Липецк 398036 Россия",52.59745,39.60342
6189355,2020-12-15,Липецкая область,Липецк,Рестораны,,Кафе,Сыр,"60 лет СССР проспект, 37, Липецк 398036 Россия",52.58462,39.54125
13074562,2020-12-15,Липецкая область,Липецк,Рестораны,,,ОПЕНХАУС,"ул. 50 лет НЛМК, д.6 Б, Липецк 398059 Россия",52.588943,39.59348
16727183,2020-12-15,Липецкая область,Становлянский район,Рестораны,,,Казанский луг,"м4 Дон, 346-й километр, Озерки Россия",52.42617,38.82849
6189389,2020-12-15,Липецкая область,Липецк,Рестораны,,,Час-Пик,"Фрунзе, 5, Липецк 398059 Россия",52.602695,39.593426
6189264,2020-12-15,Липецкая область,Липецк,Рестораны,,,Золотая Арба,"Ленина, 11, Липецк 398050 Россия",52.60973,39.60182
6189303,2020-12-15,Липецкая область,Липецк,Рестораны,,,Маренго,"Водопьянова, 17, Липецк 398046 Россия",52.58836,39.54952
8351230,2020-12-15,Липецкая область,Липецк,Рестораны,,,Вобла,"ул.Меркулова 10А, Липецк 398046 Россия",52.59082,39.54623
6189295,2020-12-15,Липецкая область,Липецк,Рестораны,,Кафе,МагеллаН,"Московская, 75А, Липецк 398070 Россия",52.60843,39.52934
7625030,2020-12-15,Липецкая область,Липецк,Рестораны,,"Бар,Кафе",Rob Roy Bar,"ул. Ворошилова, 1, Липецк 398001 Россия",52.603252,39.589237
12959295,2020-12-15,Липецкая область,Липецк,Рестораны,,,Le Petit Paris,"ул. Коммунальная, д.14, Липецк 398059 Россия",52.599693,39.588223
7023833,2020-12-15,Липецкая область,Липецк,Рестораны,,,Корчма Гоголь на Первомайской,"ул. Первомайская, 78, Липецк 398001 Россия",52.60393,39.59874
13140650,2020-12-15,Липецкая область,Липецк,Рестораны,,,Кинза,"ул. Фрунзе, д. 43, Липецк 398059 Россия",52.60635,39.59282
6820822,2020-12-15,Липецкая область,Елец,Рестораны,,,"Ресторан ""Елец""","улица Коммунаров, 14 Elets Hotel, Елец Россия",52.62493,38.50222
6189186,2020-12-15,Липецкая область,Липецк,Рестораны,,,De'Bassus,"Победы площадь, 8, Липецк 398001 Россия",52.604168,39.57458
9756434,2020-12-15,Липецкая область,Елец,Рестораны,,Фастфуд,Макдональдс,"ул. Коммунаров, 143г, Елец Россия",52.62809,38.4585
6189407,2020-12-15,Липецкая область,Липецк,Рестораны,,Фастфуд,Щепкин,"Ворошилова, 3, Липецк 398001 Россия",52.6038,39.58997
6189209,2020-12-15,Липецкая область,Липецк,Рестораны,,,Giusto,"Ленина, 5, Липецк 398050 Россия",52.610867,39.603058
6189368,2020-12-15,Липецкая область,Липецк,Рестораны,,,Трибуна,"Скороходова, 1а, Липецк 398001 Россия",52.604828,39.595356
17815949,2020-12-15,Липецкая область,Липецк,Рестораны,,Бар,Рыбы Бы,"Фрунзе, 1, Липецк 398001 Россия",52.603424,39.59365
17811677,2020-12-15,Липецкая область,Липецк,Рестораны,,,Халиф,"Советская, 64, Липецк 398001 Россия",52.604187,39.578644
7279241,2020-12-15,Липецкая область,Елец,Рестораны,,Бар,Томато,"ул. Мира, 113, Елец Россия",52.622437,38.500126
7198291,2020-12-15,Липецкая область,Елец,Рестораны,,Кафе,Jem cafe,"ул. Свердлова, 17, Елец 399770 Россия",52.621975,38.497784
19091163,2020-12-15,Липецкая область,Липецк,Рестораны,,"Паб,Гастропаб",Гастробар «Фабрика»,"Фрунзе, 1, Липецк 398001 Россия",52.603615,39.59364
6189386,2020-12-15,Липецкая область,Липецк,Рестораны,,Кафе,Фёст,"Первомайская, 32а, Липецк 398001 Россия",52.60393,39.59874
8560738,2020-12-15,Липецкая область,Скорняково,Рестораны,,,"Ресторация ""Бальмонтъ""","ул. Муравьева, 23, Скорняково 399231 Россия",52.679558,38.914406
10847653,2020-12-15,Липецкая область,Липецк,Рестораны,,,Шокунин,"ул. Плеханова, дом 59, Липецк 398050 Россия",52.61526,39.603405
6189302,2020-12-15,Липецкая область,Липецк,Рестораны,,,Малика,"Московская, 79г, Липецк 398045 Россия",52.606873,39.5275
7135045,2020-12-15,Липецкая область,Липецк,Рестораны,,,Кафе Чайник,"ул. Первомайская, 55, Липецк 398059 Россия",52.603058,39.59372
4888199,2020-12-15,Липецкая область,Липецк,Рестораны,,Бар,ПолМедведя,"ул. Катукова, 18A, Липецк 398036 Россия",52.58402,39.525444
6189288,2020-12-15,Липецкая область,Липецк,Рестораны,,,Корчма Гоголь,"Космонавтов, 24, Липецк 398016 Россия",52.61791,39.58238
5566770,2020-12-15,Липецкая область,Липецк,Рестораны,,Бар,Merzen,"ул. Скороходова, д. 1б, Липецк 398059 Россия",52.603947,39.595722
7217621,2020-12-15,Липецкая область,Елец,Достопримечательности,Достопримечательности и культурные объекты,,Великокняжеская Церковь Михаила Тверского и Александра Невского,"ул. Советская, Елец Россия",52.62293,38.49952
5453491,2020-12-15,Липецкая область,Липецк,Достопримечательности,Музеи,,Липецкий музей народного и декоративно-прикладного искусства,"ул. Космонавтов, д. 2, Липецк 398016 Россия",52.618027,39.58311
7023422,2020-12-15,Липецкая область,Липецк,Рестораны,,,Kафе-бар яхт-клуб Марбелья,"ул. Карла Маркса, 31, Липецк 398059 Россия",52.601227,39.612553
7124632,2020-12-15,Липецкая область,Липецк,Рестораны,,Бар,Ирландский паб Dublin,"Коммунальная площадь, 9Б, Липецк 398059 Россия",52.60036,39.59197
13079199,2020-12-15,Липецкая область,Задонск,Достопримечательности,Достопримечательности и культурные объекты,Священные места и религиозные достопримечательности,Святой источник Тихона Задонского,"Задонский Свято-Тихоновский Преображенский женский монастырь, Задонск 399200 Россия",52.440197,38.96285
10383337,2020-12-15,Липецкая область,Липецк,Достопримечательности,Достопримечательности и культурные объекты,,Памятник в честь 300-летия Липецка,"Петровский пр., 1, Липецк 398050 Россия",52.60636,39.6011
6493609,2020-12-15,Липецкая область,Липецк,Достопримечательности,Достопримечательности и культурные объекты,,Никольский храм,,52.59946,39.5855
6502834,2020-12-15,Липецкая область,Липецк,Достопримечательности,Природа и парки,,Парк Победы,"60 лет СССР проспект, вл36, Липецк Россия",52.58446,39.5425
2606483,2020-12-15,Липецкая область,Липецк,Достопримечательности,Музеи,,Липецкий областной краеведческий музей,"ул. Ленина, д. 25 Музей с 1991 г. располагается в здании бывшего Дома политпросвещения., Липецк 398020 Россия",52.614166,39.608612
6867830,2020-12-15,Липецкая область,Липецк,Достопримечательности,Достопримечательности и культурные объекты,Культурные объекты и достопримечательности,Памятник Петру I,"Площадь Петра Великого, Липецк Россия",52.60325,39.60715
12613930,2020-12-15,Липецкая область,Задонск,Достопримечательности,Достопримечательности и культурные объекты,Церкви и соборы,Задонский Свято-Тихоновский Преображенский женский монастырь,Задонск 399200 Россия,52.43871,38.962055
6439984,2020-12-15,Липецкая область,Задонск,Достопримечательности,Достопримечательности и культурные объекты,,Задонский Рождество-Богородицкий монастырь,,52.39337,38.91449
7912684,2020-12-15,Липецкая область,Елец,Достопримечательности,Природа и парки,,Воргольские скалы,,52.575226,38.35203
6492159,2020-12-15,Липецкая область,Липецк,Достопримечательности,Достопримечательности и культурные объекты,Церкви и соборы,Христо-Рождественский кафедральный собор,"Соборная площадь, 5, Липецк 398050 Россия",52.60952,39.60065
6502128,2020-12-15,Липецкая область,Липецк,Достопримечательности,Природа и парки,,Быханов сад,,52.61844,39.61644
6493171,2020-12-15,Липецкая область,Липецк,Достопримечательности,Достопримечательности и культурные объекты,,Липецкий Свято-Успенский Епархиальный мужской монастырь,"Салтыкова-Щедрина, 80, Липецк 398020 Россия",52.60714,39.60003
6503266,2020-12-15,Липецкая область,Елец,Достопримечательности,Достопримечательности и культурные объекты,Церкви и соборы,Вознесенский собор,"Красная площадь, Елец Россия",52.62487,38.50752
